var towers = [{"DoveID": "AB KETTLEB", "Place": "Ab Kettleby", "Dedicn": "S James", "Bells": "6", "Practise": "Wed", "ExtraInfo": "", "lon": "-0.92747", "lat": "52.79858"}, {"DoveID": "ABBESS ROD", "Place": "Abbess Roding", "Dedicn": "S Edmund K&M", "Bells": "3", "Practise": "", "ExtraInfo": "Unringable; ropes fall in a straight line; no sliders", "lon": "0.27690", "lat": "51.77958"}, {"DoveID": "ABBEY DORE", "Place": "Abbey Dore", "Dedicn": "S Mary", "Bells": "6", "Practise": "", "ExtraInfo": "Anti-clockwise; no electric lighting in ante-chamber to ringing room", "lon": "-2.89361", "lat": "51.96860"}, {"DoveID": "ABBOTS BIC", "Place": "Abbots Bickington", "Dedicn": "S James", "Bells": "3", "Practise": "", "ExtraInfo": "Unringable; anti-clockwise; tuning: 1,2,4 of 5; (BUT notes perceived not=nominal/2)", "lon": "-4.29828", "lat": "50.89614"}, {"DoveID": "ABBOTS BRO", "Place": "Abbots Bromley", "Dedicn": "S Nicholas", "Bells": "8", "Practise": "Tue", "ExtraInfo": "", "lon": "-1.88389", "lat": "52.81844"}, {"DoveID": "ABBOTS LAN", "Place": "Abbots Langley", "Dedicn": "S Lawrence", "Bells": "6", "Practise": "Mon", "ExtraInfo": "", "lon": "-0.41716", "lat": "51.70775"}, {"DoveID": "ABBOTS LEI", "Place": "Abbots Leigh", "Dedicn": "Holy Trinity", "Bells": "6", "Practise": "", "ExtraInfo": "", "lon": "-2.65736", "lat": "51.46323"}, {"DoveID": "ABBOTS RIP", "Place": "Abbots Ripton", "Dedicn": "S Andrew", "Bells": "3", "Practise": "", "ExtraInfo": "", "lon": "-0.19334", "lat": "52.38636"}, {"DoveID": "ABBOTSBURY", "Place": "Abbotsbury", "Dedicn": "S Nicholas", "Bells": "6", "Practise": "Wed", "ExtraInfo": "", "lon": "-2.59917", "lat": "50.66497"}, {"DoveID": "ABBOTSHAM", "Place": "Abbotsham", "Dedicn": "S Helen", "Bells": "6", "Practise": "Wed", "ExtraInfo": "", "lon": "-4.24735", "lat": "51.01557"}, {"DoveID": "ABBOTSKERS", "Place": "Abbotskerswell", "Dedicn": "Blessed Virgin Mary", "Bells": "6", "Practise": "", "ExtraInfo": "", "lon": "-3.61481", "lat": "50.50728"}, {"DoveID": "ABBOTSLEY", "Place": "Abbotsley", "Dedicn": "S Margaret", "Bells": "5", "Practise": "", "ExtraInfo": "Tenor hung dead; unringable; one or more bells not hung; anti-clockwise; tuning: 2-6 of 8", "lon": "-0.20544", "lat": "52.19345"}, {"DoveID": "ABBOTTS AN", "Place": "Abbotts Ann", "Dedicn": "S Mary", "Bells": "6", "Practise": "Thu", "ExtraInfo": "", "lon": "-1.52873", "lat": "51.19038"}, {"DoveID": "ABENHALL", "Place": "Abenhall", "Dedicn": "S Michael", "Bells": "3", "Practise": "", "ExtraInfo": "Unringable; one bell (or more) cracked or broken", "lon": "-2.47867", "lat": "51.85445"}, {"DoveID": "ABERAVON", "Place": "Aberavon", "Dedicn": "S Mary", "Bells": "8", "Practise": "Mon", "ExtraInfo": "Tower notice(s) / pNBR info discrepant; county books / pNBR info discrepant", "lon": "-3.78749", "lat": "51.59631"}, {"DoveID": "ABERDARE", "Place": "Aberdare", "Dedicn": "S Elvan", "Bells": "8", "Practise": "", "ExtraInfo": "Ringing temporarily suspended; tuned to old concert pitch (A=454Hz)", "lon": "-3.44564", "lat": "51.71318"}, {"DoveID": "ABERDEEN", "Place": "Aberdeen", "Dedicn": "Cath Ch of S Machar", "Bells": "8", "Practise": "Mon", "ExtraInfo": "", "lon": "-2.10266", "lat": "57.16977"}, {"DoveID": "ABERDEENRC", "Place": "Aberdeen", "Dedicn": "Cath Ch of S Mary of The Assumption", "Bells": "8", "Practise": "Thu", "ExtraInfo": "The ringing bells form part of a 14-bell chime", "lon": "-2.10681", "lat": "57.14540"}, {"DoveID": "ABERFORD", "Place": "Aberford", "Dedicn": "S Ricarius", "Bells": "4", "Practise": "", "ExtraInfo": "", "lon": "-1.34408", "lat": "53.82881"}, {"DoveID": "ABERGAVENN", "Place": "Abergavenny", "Dedicn": "S Mary", "Bells": "10", "Practise": "Mon", "ExtraInfo": "Two independent routes reach ringing chamber", "lon": "-3.01544", "lat": "51.82140"}, {"DoveID": "ABERGELE", "Place": "Abergele", "Dedicn": "S Michael", "Bells": "6", "Practise": "Mon", "ExtraInfo": "", "lon": "-3.58366", "lat": "53.28527"}, {"DoveID": "ABILENE", "Place": "Abilene", "Dedicn": "The Heavenly Rest", "Bells": "6", "Practise": "", "ExtraInfo": "The ringing bells form part of a 25-bell carillon; unringable", "lon": "-99.74567", "lat": "32.44421"}, {"DoveID": "ABINGDONSH", "Place": "Abingdon", "Dedicn": "S Helen", "Bells": "10", "Practise": "Tue", "ExtraInfo": "", "lon": "-1.28284", "lat": "51.66771"}, {"DoveID": "ABINGDONSN", "Place": "Abingdon", "Dedicn": "S Nicolas", "Bells": "6", "Practise": "Tue", "ExtraInfo": "", "lon": "-1.28093", "lat": "51.67024"}, {"DoveID": "ABSON", "Place": "Abson", "Dedicn": "S James Gt", "Bells": "6", "Practise": "", "ExtraInfo": "", "lon": "-2.42593", "lat": "51.47175"}, {"DoveID": "ACCRINGTN", "Place": "Accrington", "Dedicn": "S James", "Bells": "12", "Practise": "Fri", "ExtraInfo": "", "lon": "-2.36551", "lat": "53.75196"}, {"DoveID": "ACHURCH", "Place": "Achurch", "Dedicn": "S John Bapt", "Bells": "4", "Practise": "", "ExtraInfo": "3rd (5-1-6) is heavier than tenor", "lon": "-0.49905", "lat": "52.43662"}, {"DoveID": "ACKWORTH", "Place": "Ackworth", "Dedicn": "S Cuthbert", "Bells": "6", "Practise": "Fri", "ExtraInfo": "5th unringable", "lon": "-1.33536", "lat": "53.65726"}, {"DoveID": "ACLE", "Place": "Acle", "Dedicn": "S Edmund", "Bells": "6", "Practise": "", "ExtraInfo": "Tower notice(s) / pNBR info discrepant; round tower", "lon": "1.54723", "lat": "52.63720"}, {"DoveID": "ACTON  CHE", "Place": "Acton", "Dedicn": "S Mary", "Bells": "6", "Practise": "Tue", "ExtraInfo": "", "lon": "-2.55139", "lat": "53.07369"}, {"DoveID": "ACTON  LON", "Place": "Acton", "Dedicn": "S Mary", "Bells": "8", "Practise": "", "ExtraInfo": "Ringing temporarily suspended", "lon": "-0.27224", "lat": "51.50780"}, {"DoveID": "ACTON  SUF", "Place": "Acton", "Dedicn": "All Saints", "Bells": "5", "Practise": "", "ExtraInfo": "", "lon": "0.75938", "lat": "52.07307"}, {"DoveID": "ACTON BURN", "Place": "Acton Burnell", "Dedicn": "S Mary", "Bells": "4", "Practise": "", "ExtraInfo": "No regular ringing", "lon": "-2.69027", "lat": "52.61318"}, {"DoveID": "ACTON SCOT", "Place": "Acton Scott", "Dedicn": "S Margaret", "Bells": "3", "Practise": "", "ExtraInfo": "Tuning: 1-3 of 4", "lon": "-2.80629", "lat": "52.50003"}, {"DoveID": "ADBASTON", "Place": "Adbaston", "Dedicn": "S Michael & All Angels", "Bells": "4", "Practise": "", "ExtraInfo": "", "lon": "-2.35467", "lat": "52.84821"}, {"DoveID": "ADDERBURY", "Place": "Adderbury", "Dedicn": "S Mary", "Bells": "8", "Practise": "Tue", "ExtraInfo": "", "lon": "-1.31561", "lat": "52.01488"}, {"DoveID": "ADDINGHAM", "Place": "Addingham", "Dedicn": "S Peter", "Bells": "6", "Practise": "Wed", "ExtraInfo": "PN alternates with Ilkley", "lon": "-1.87185", "lat": "53.94338"}, {"DoveID": "ADDINGTN B", "Place": "Addington", "Dedicn": "S Mary", "Bells": "3", "Practise": "", "ExtraInfo": "Unringable; anti-clockwise; tuning: 1-3 of 5", "lon": "-0.92103", "lat": "51.94995"}, {"DoveID": "ADDINGTN K", "Place": "Addington", "Dedicn": "S Margaret", "Bells": "4", "Practise": "", "ExtraInfo": "Tower notice(s) / pNBR info discrepant; 3rd (5-1-18) is heavier than tenor", "lon": "0.37108", "lat": "51.30500"}, {"DoveID": "ADDINGTN L", "Place": "Addington", "Dedicn": "S Mary", "Bells": "6", "Practise": "Mon", "ExtraInfo": "", "lon": "-0.03240", "lat": "51.35840"}, {"DoveID": "ADDLETHORP", "Place": "Addlethorpe", "Dedicn": "S Nicholas", "Bells": "6", "Practise": "", "ExtraInfo": "Also a sanctus bell hung for ringing", "lon": "0.32008", "lat": "53.19628"}, {"DoveID": "ADELA   CA", "Place": "Adelaide", "Dedicn": "Cath Ch of S Peter", "Bells": "8", "Practise": "Tue", "ExtraInfo": "CC recognised Ringing Centre", "lon": "138.59834", "lat": "-34.91308"}, {"DoveID": "ADELA   SF", "Place": "Adelaide", "Dedicn": "RC Cath Ch of S Francis Xavier", "Bells": "12", "Practise": "", "ExtraInfo": "Also 2#; limited ringing - call ahead", "lon": "138.60127", "lat": "-34.92883"}, {"DoveID": "ADELA   TH", "Place": "Adelaide", "Dedicn": "Town Hall", "Bells": "8", "Practise": "Mon", "ExtraInfo": "", "lon": "138.59988", "lat": "-34.92613"}, {"DoveID": "ADELA PRS", "Place": "Adelaide", "Dedicn": "S Cuthbert", "Bells": "8", "Practise": "Fri", "ExtraInfo": "Detached tower", "lon": "138.59481", "lat": "-34.89183"}, {"DoveID": "ADELA WLK", "Place": "Adelaide", "Dedicn": "S Andrew", "Bells": "6", "Practise": "", "ExtraInfo": "", "lon": "138.61596", "lat": "-34.89176"}, {"DoveID": "ADISHAM", "Place": "Adisham", "Dedicn": "Holy Innocents", "Bells": "4", "Practise": "", "ExtraInfo": "Tenor hung dead; unringable; one or more bells not hung", "lon": "1.19033", "lat": "51.24401"}, {"DoveID": "ADLESTROP", "Place": "Adlestrop", "Dedicn": "S Mary Magd", "Bells": "6", "Practise": "", "ExtraInfo": "", "lon": "-1.64815", "lat": "51.94001"}, {"DoveID": "ADLINGTON", "Place": "Adlington", "Dedicn": "S Paul", "Bells": "8", "Practise": "Thu", "ExtraInfo": "", "lon": "-2.60109", "lat": "53.61651"}, {"DoveID": "ADVENT", "Place": "Advent", "Dedicn": "S Adwena", "Bells": "6", "Practise": "", "ExtraInfo": "", "lon": "-4.67982", "lat": "50.60336"}, {"DoveID": "ADWICK LE", "Place": "Adwick le Street", "Dedicn": "S Laurence", "Bells": "6", "Practise": "", "ExtraInfo": "", "lon": "-1.18479", "lat": "53.57115"}, {"DoveID": "AINDERBY", "Place": "Ainderby Steeple", "Dedicn": "S Helen", "Bells": "6", "Practise": "Fri", "ExtraInfo": "", "lon": "-1.48731", "lat": "54.32334"}, {"DoveID": "ALBERBURY", "Place": "Alberbury", "Dedicn": "S Michael & All Angels", "Bells": "5", "Practise": "", "ExtraInfo": "Unringable", "lon": "-2.95095", "lat": "52.72388"}, {"DoveID": "ALBRIGHTON", "Place": "Albrighton", "Dedicn": "S Mary Magd", "Bells": "8", "Practise": "Mon", "ExtraInfo": "", "lon": "-2.28327", "lat": "52.63724"}, {"DoveID": "ALBURGH", "Place": "Alburgh", "Dedicn": "All Saints", "Bells": "8", "Practise": "Mon", "ExtraInfo": "", "lon": "1.33908", "lat": "52.43635"}, {"DoveID": "ALBURY HTS", "Place": "Albury", "Dedicn": "S Mary", "Bells": "6", "Practise": "Mon", "ExtraInfo": "", "lon": "0.08516", "lat": "51.90264"}, {"DoveID": "ALBURY NSW", "Place": "Albury", "Dedicn": "S Matthew", "Bells": "8", "Practise": "Tue", "ExtraInfo": "", "lon": "146.91624", "lat": "-36.08005"}, {"DoveID": "ALBURY SRY", "Place": "Albury", "Dedicn": "S Peter & S Paul", "Bells": "6", "Practise": "Mon", "ExtraInfo": "", "lon": "-0.49771", "lat": "51.21818"}, {"DoveID": "ALCESTER", "Place": "Alcester", "Dedicn": "S Nicholas", "Bells": "8", "Practise": "Thu", "ExtraInfo": "", "lon": "-1.86914", "lat": "52.21534"}, {"DoveID": "ALCONBURY", "Place": "Alconbury", "Dedicn": "S Peter & S Paul", "Bells": "6", "Practise": "", "ExtraInfo": "Unringable", "lon": "-0.26168", "lat": "52.37032"}, {"DoveID": "ALDBOROUGH", "Place": "Aldborough", "Dedicn": "S Andrew", "Bells": "6", "Practise": "", "ExtraInfo": "", "lon": "-1.38095", "lat": "54.09216"}, {"DoveID": "ALDBOURNE", "Place": "Aldbourne", "Dedicn": "S Michael", "Bells": "8", "Practise": "Fri", "ExtraInfo": "", "lon": "-1.62162", "lat": "51.48066"}, {"DoveID": "ALDBURY", "Place": "Aldbury", "Dedicn": "S John Bapt", "Bells": "6", "Practise": "Wed", "ExtraInfo": "", "lon": "-0.60422", "lat": "51.80254"}, {"DoveID": "ALDEBURGH", "Place": "Aldeburgh", "Dedicn": "S Peter & S Paul", "Bells": "8", "Practise": "Mon", "ExtraInfo": "", "lon": "1.59969", "lat": "52.15494"}, {"DoveID": "ALDEBY", "Place": "Aldeby", "Dedicn": "S Mary", "Bells": "5", "Practise": "", "ExtraInfo": "Tuning: 2-6 of 8", "lon": "1.60751", "lat": "52.48265"}, {"DoveID": "ALDENHAM", "Place": "Aldenham", "Dedicn": "S John Bapt", "Bells": "8", "Practise": "Mon", "ExtraInfo": "", "lon": "-0.35318", "lat": "51.67340"}, {"DoveID": "ALDERMASTO", "Place": "Aldermaston", "Dedicn": "S Mary V", "Bells": "8", "Practise": "Thu", "ExtraInfo": "", "lon": "-1.14440", "lat": "51.38070"}, {"DoveID": "ALDERMINST", "Place": "Alderminster", "Dedicn": "S Mary & Holy Cross", "Bells": "6", "Practise": "", "ExtraInfo": "", "lon": "-1.66542", "lat": "52.13553"}, {"DoveID": "ALDERSHOT", "Place": "Aldershot", "Dedicn": "S Michael Archangel", "Bells": "8", "Practise": "Thu", "ExtraInfo": "", "lon": "-0.75605", "lat": "51.24158"}, {"DoveID": "ALDERTON G", "Place": "Alderton", "Dedicn": "S Margaret", "Bells": "6", "Practise": "Thu", "ExtraInfo": "PN shared: Alderton, Dumbleton", "lon": "-1.99856", "lat": "51.99708"}, {"DoveID": "ALDERTON N", "Place": "Alderton", "Dedicn": "S Margaret", "Bells": "5", "Practise": "", "ExtraInfo": "", "lon": "-0.92019", "lat": "52.11553"}, {"DoveID": "ALDERTON W", "Place": "Alderton", "Dedicn": "S Giles", "Bells": "6", "Practise": "", "ExtraInfo": "", "lon": "-2.22944", "lat": "51.54621"}, {"DoveID": "ALDFORD", "Place": "Aldford", "Dedicn": "S John Bapt", "Bells": "6", "Practise": "Tue", "ExtraInfo": "", "lon": "-2.86997", "lat": "53.12899"}, {"DoveID": "ALDINGBOUR", "Place": "Aldingbourne", "Dedicn": "S Mary V", "Bells": "5", "Practise": "Mon", "ExtraInfo": "", "lon": "-0.68985", "lat": "50.84154"}, {"DoveID": "ALDINGTON", "Place": "Aldington", "Dedicn": "S Martin", "Bells": "6", "Practise": "Wed", "ExtraInfo": "", "lon": "0.96131", "lat": "51.08746"}, {"DoveID": "ALDRIDGE", "Place": "Aldridge", "Dedicn": "S Mary V", "Bells": "8", "Practise": "Thu", "ExtraInfo": "", "lon": "-1.91281", "lat": "52.60435"}, {"DoveID": "ALDRINGTON", "Place": "Aldrington", "Dedicn": "S Leonard", "Bells": "6", "Practise": "Tue", "ExtraInfo": "", "lon": "-0.20396", "lat": "50.83291"}, {"DoveID": "ALDWICK", "Place": "Aldwick", "Dedicn": "S Richard", "Bells": "8", "Practise": "Tue", "ExtraInfo": "", "lon": "-0.71120", "lat": "50.78389"}, {"DoveID": "ALDWINCLE", "Place": "Aldwincle", "Dedicn": "S Peter", "Bells": "5", "Practise": "", "ExtraInfo": "", "lon": "-0.52191", "lat": "52.42547"}, {"DoveID": "ALDWORTH", "Place": "Aldworth", "Dedicn": "S Mary V", "Bells": "3", "Practise": "", "ExtraInfo": "", "lon": "-1.20320", "lat": "51.51064"}, {"DoveID": "ALEXANDRIA", "Place": "Alexandria", "Dedicn": "Virginia Theological Seminary, Immanuel Chapel", "Bells": "8", "Practise": "Mon", "ExtraInfo": "The Hooff Norman Bells", "lon": "-77.09261", "lat": "38.81981"}, {"DoveID": "ALFOLD", "Place": "Alfold", "Dedicn": "S Nicholas", "Bells": "6", "Practise": "Thu", "ExtraInfo": "", "lon": "-0.52033", "lat": "51.09570"}, {"DoveID": "ALFORD", "Place": "Alford", "Dedicn": "S Wilfrid", "Bells": "6", "Practise": "Thu", "ExtraInfo": "", "lon": "0.18054", "lat": "53.26164"}, {"DoveID": "ALFRETON", "Place": "Alfreton", "Dedicn": "S Martin", "Bells": "8", "Practise": "", "ExtraInfo": "", "lon": "-1.39345", "lat": "53.09860"}, {"DoveID": "ALFRISTON", "Place": "Alfriston", "Dedicn": "S Andrew", "Bells": "6", "Practise": "Tue", "ExtraInfo": "Rung from chancel crossing", "lon": "0.15802", "lat": "50.80658"}, {"DoveID": "ALGARKIRK", "Place": "Algarkirk", "Dedicn": "S Peter & S Paul", "Bells": "6", "Practise": "", "ExtraInfo": "Unringable; rung from chancel crossing; anti-clockwise", "lon": "-0.08169", "lat": "52.89948"}, {"DoveID": "ALKBOROUGH", "Place": "Alkborough", "Dedicn": "S John Bapt", "Bells": "3", "Practise": "", "ExtraInfo": "Unringable; tuning: 1,2b,3 of 3", "lon": "-0.66615", "lat": "53.68607"}, {"DoveID": "ALKHAM", "Place": "Alkham", "Dedicn": "S Anthony", "Bells": "4", "Practise": "", "ExtraInfo": "", "lon": "1.22244", "lat": "51.13609"}, {"DoveID": "ALL CANNIN", "Place": "All Cannings", "Dedicn": "All Saints", "Bells": "6", "Practise": "", "ExtraInfo": "", "lon": "-1.90131", "lat": "51.35313"}, {"DoveID": "ALLENDALE", "Place": "Allendale", "Dedicn": "S Cuthbert", "Bells": "8", "Practise": "Wed", "ExtraInfo": "", "lon": "-2.25457", "lat": "54.89802"}, {"DoveID": "ALLENSMORE", "Place": "Allensmore", "Dedicn": "S Andrew", "Bells": "6", "Practise": "", "ExtraInfo": "", "lon": "-2.77932", "lat": "52.01873"}, {"DoveID": "ALLER", "Place": "Aller", "Dedicn": "S Andrew", "Bells": "6", "Practise": "", "ExtraInfo": "County books / pNBR info discrepant", "lon": "-2.86285", "lat": "51.05536"}, {"DoveID": "ALLERSTON", "Place": "Allerston", "Dedicn": "S John", "Bells": "3", "Practise": "", "ExtraInfo": "", "lon": "-0.65425", "lat": "54.23443"}, {"DoveID": "ALLERTON M", "Place": "Allerton Mauleverer", "Dedicn": "S Martin", "Bells": "3", "Practise": "", "ExtraInfo": "Unringable; one bell (or more) cracked or broken; anti-clockwise", "lon": "-1.36679", "lat": "54.01594"}, {"DoveID": "ALLESLEY", "Place": "Allesley", "Dedicn": "All Saints", "Bells": "8", "Practise": "Tue", "ExtraInfo": "", "lon": "-1.55765", "lat": "52.42306"}, {"DoveID": "ALLESTREE", "Place": "Allestree", "Dedicn": "S Edmund K&M", "Bells": "3", "Practise": "", "ExtraInfo": "Anti-clockwise; tuning: 1,2,4 of 5", "lon": "-1.48375", "lat": "52.95366"}, {"DoveID": "ALLEXTON", "Place": "Allexton", "Dedicn": "S Peter", "Bells": "4", "Practise": "", "ExtraInfo": "Tuning: 1-4 of 5", "lon": "-0.79453", "lat": "52.59533"}, {"DoveID": "ALLINGTON", "Place": "Allington", "Dedicn": "S John Bapt", "Bells": "3", "Practise": "", "ExtraInfo": "Unringable; rung from porch; ropes fall in a straight line; tuning: 1,3,4 of 6", "lon": "-1.70949", "lat": "51.15330"}, {"DoveID": "ALLOA", "Place": "Alloa", "Dedicn": "S John Ev", "Bells": "8", "Practise": "", "ExtraInfo": "", "lon": "-3.79367", "lat": "56.11264"}, {"DoveID": "ALMELEY", "Place": "Almeley", "Dedicn": "S Mary", "Bells": "6", "Practise": "Fri", "ExtraInfo": "", "lon": "-2.97702", "lat": "52.15777"}, {"DoveID": "ALMER", "Place": "Almer", "Dedicn": "S Mary", "Bells": "4", "Practise": "", "ExtraInfo": "Unringable; wheels removed", "lon": "-2.12470", "lat": "50.78985"}, {"DoveID": "ALMONDBURY", "Place": "Almondbury", "Dedicn": "All Hallows", "Bells": "8", "Practise": "Mon", "ExtraInfo": "", "lon": "-1.74709", "lat": "53.63174"}, {"DoveID": "ALMONDSBUR", "Place": "Almondsbury", "Dedicn": "S Mary V", "Bells": "8", "Practise": "Mon", "ExtraInfo": "", "lon": "-2.57335", "lat": "51.55419"}, {"DoveID": "ALNWICK MI", "Place": "Alnwick", "Dedicn": "S Michael", "Bells": "3", "Practise": "", "ExtraInfo": "Unringable; tuning: 2,3,8 of 10", "lon": "-1.71138", "lat": "55.41688"}, {"DoveID": "ALNWICKRC", "Place": "Alnwick", "Dedicn": "S Paul", "Bells": "8", "Practise": "", "ExtraInfo": "Former (Anglican) ch of S Paul (until 1982); unringable", "lon": "-1.70667", "lat": "55.41109"}, {"DoveID": "ALREWAS", "Place": "Alrewas", "Dedicn": "All Saints", "Bells": "8", "Practise": "Tue", "ExtraInfo": "", "lon": "-1.75334", "lat": "52.73476"}, {"DoveID": "ALSAGER", "Place": "Alsager", "Dedicn": "Christ Church", "Bells": "8", "Practise": "Mon", "ExtraInfo": "", "lon": "-2.31682", "lat": "53.09772"}, {"DoveID": "ALSTONEFIE", "Place": "Alstonefield", "Dedicn": "S Peter", "Bells": "6", "Practise": "Wed", "ExtraInfo": "", "lon": "-1.80338", "lat": "53.09512"}, {"DoveID": "ALTARNUN", "Place": "Altarnun", "Dedicn": "S Nonna", "Bells": "8", "Practise": "", "ExtraInfo": "", "lon": "-4.51315", "lat": "50.60464"}, {"DoveID": "ALTON H AS", "Place": "Alton", "Dedicn": "All Saints", "Bells": "6", "Practise": "Tue", "ExtraInfo": "", "lon": "-0.98042", "lat": "51.14539"}, {"DoveID": "ALTON H L", "Place": "Alton", "Dedicn": "S Lawrence", "Bells": "8", "Practise": "Thu", "ExtraInfo": "", "lon": "-0.97589", "lat": "51.15109"}, {"DoveID": "ALTON STAF", "Place": "Alton", "Dedicn": "S Peter", "Bells": "8", "Practise": "Mon", "ExtraInfo": "", "lon": "-1.89194", "lat": "52.97830"}, {"DoveID": "ALTONPRIOR", "Place": "Alton Priors", "Dedicn": "All Saints", "Bells": "3", "Practise": "", "ExtraInfo": "Unringable; ropes fall in a straight line; no electricity; tuning: 2,3,5 of 8", "lon": "-1.84475", "lat": "51.35804"}, {"DoveID": "ALVECHURCH", "Place": "Alvechurch", "Dedicn": "S Lawrence", "Bells": "8", "Practise": "Tue", "ExtraInfo": "", "lon": "-1.96260", "lat": "52.35000"}, {"DoveID": "ALVEDISTON", "Place": "Alvediston", "Dedicn": "S Mary", "Bells": "3", "Practise": "", "ExtraInfo": "Unringable; tuning: (approx) 1,2,4 of 5", "lon": "-2.03465", "lat": "51.01489"}, {"DoveID": "ALVELEY", "Place": "Alveley", "Dedicn": "S Mary V", "Bells": "6", "Practise": "Thu", "ExtraInfo": "", "lon": "-2.35547", "lat": "52.45831"}, {"DoveID": "ALVERDISCO", "Place": "Alverdiscott", "Dedicn": "All Saints", "Bells": "3", "Practise": "", "ExtraInfo": "Unringable; derelict; tuning: 1,3,4 of 4", "lon": "-4.11171", "lat": "51.00754"}, {"DoveID": "ALVERSTOKE", "Place": "Alverstoke", "Dedicn": "S Mary", "Bells": "8", "Practise": "Fri", "ExtraInfo": "", "lon": "-1.14825", "lat": "50.78565"}, {"DoveID": "ALVESCOT", "Place": "Alvescot", "Dedicn": "S Peter", "Bells": "6", "Practise": "", "ExtraInfo": "", "lon": "-1.60491", "lat": "51.73945"}, {"DoveID": "ALVESTON G", "Place": "Alveston", "Dedicn": "S Helen", "Bells": "6", "Practise": "Tue", "ExtraInfo": "", "lon": "-2.53049", "lat": "51.58501"}, {"DoveID": "ALVESTON W", "Place": "Alveston", "Dedicn": "S James", "Bells": "6", "Practise": "Wed", "ExtraInfo": "", "lon": "-1.66228", "lat": "52.20478"}, {"DoveID": "ALVINGHAM", "Place": "Alvingham", "Dedicn": "S Adelwold", "Bells": "3", "Practise": "", "ExtraInfo": "Anti-clockwise; shares a churchyard with North Cockerington", "lon": "0.05596", "lat": "53.40088"}, {"DoveID": "ALVINGTON", "Place": "Alvington", "Dedicn": "S Andrew", "Bells": "5", "Practise": "Wed", "ExtraInfo": "", "lon": "-2.57578", "lat": "51.70344"}, {"DoveID": "ALWALTON", "Place": "Alwalton", "Dedicn": "S Andrew", "Bells": "5", "Practise": "Mon", "ExtraInfo": "", "lon": "-0.32991", "lat": "52.54950"}, {"DoveID": "ALWINGTON", "Place": "Alwington", "Dedicn": "S Andrew", "Bells": "6", "Practise": "", "ExtraInfo": "", "lon": "-4.27440", "lat": "50.98566"}, {"DoveID": "AMBERLEY", "Place": "Amberley", "Dedicn": "S Michael", "Bells": "5", "Practise": "Fri", "ExtraInfo": "Anti-clockwise", "lon": "-0.53961", "lat": "50.90914"}, {"DoveID": "AMBLESIDE", "Place": "Ambleside", "Dedicn": "S Mary", "Bells": "8", "Practise": "Mon", "ExtraInfo": "", "lon": "-2.96638", "lat": "54.43060"}, {"DoveID": "AMBROSDEN", "Place": "Ambrosden", "Dedicn": "S Mary V", "Bells": "8", "Practise": "", "ExtraInfo": "", "lon": "-1.12580", "lat": "51.86997"}, {"DoveID": "AMCOTTS", "Place": "Amcotts", "Dedicn": "S Mark", "Bells": "3", "Practise": "", "ExtraInfo": "Unringable", "lon": "-0.70880", "lat": "53.61670"}, {"DoveID": "AMERSHAM", "Place": "Amersham", "Dedicn": "S Mary V", "Bells": "12", "Practise": "Wed", "ExtraInfo": "Also 2#", "lon": "-0.61642", "lat": "51.66696"}, {"DoveID": "AMESBURY", "Place": "Amesbury", "Dedicn": "S Mary & S Melor", "Bells": "8", "Practise": "Mon", "ExtraInfo": "", "lon": "-1.78428", "lat": "51.17191"}, {"DoveID": "AMPLEFORTH", "Place": "Ampleforth", "Dedicn": "S Hilda", "Bells": "3", "Practise": "", "ExtraInfo": "Unringable; tuning: 1-3 of 5", "lon": "-1.10802", "lat": "54.20018"}, {"DoveID": "AMPNEY CRU", "Place": "Ampney Crucis", "Dedicn": "Holy Rood", "Bells": "6", "Practise": "Mon", "ExtraInfo": "", "lon": "-1.90745", "lat": "51.71573"}, {"DoveID": "AMPORT", "Place": "Amport", "Dedicn": "S Mary", "Bells": "6", "Practise": "Fri", "ExtraInfo": "Rung from chancel crossing", "lon": "-1.57284", "lat": "51.19624"}, {"DoveID": "AMPTHILL", "Place": "Ampthill", "Dedicn": "S Andrew", "Bells": "8", "Practise": "Thu", "ExtraInfo": "", "lon": "-0.48992", "lat": "52.03312"}, {"DoveID": "AMPTON", "Place": "Ampton", "Dedicn": "S Peter", "Bells": "4", "Practise": "", "ExtraInfo": "Anti-clockwise", "lon": "0.73573", "lat": "52.30702"}, {"DoveID": "ANCASTER", "Place": "Ancaster", "Dedicn": "S Martin", "Bells": "5", "Practise": "Thu", "ExtraInfo": "", "lon": "-0.53790", "lat": "52.98045"}, {"DoveID": "ANDOVER", "Place": "Andover", "Dedicn": "S Mary V", "Bells": "8", "Practise": "Tue", "ExtraInfo": "", "lon": "-1.47878", "lat": "51.21004"}, {"DoveID": "ANGERSLEIG", "Place": "Angersleigh", "Dedicn": "S Michael", "Bells": "6", "Practise": "", "ExtraInfo": "", "lon": "-3.14203", "lat": "50.96209"}, {"DoveID": "ANGMERING", "Place": "Angmering", "Dedicn": "S Margaret", "Bells": "6", "Practise": "Thu", "ExtraInfo": "", "lon": "-0.48626", "lat": "50.82890"}, {"DoveID": "ANSFORD", "Place": "Ansford", "Dedicn": "S Andrew", "Bells": "6", "Practise": "Tue", "ExtraInfo": "", "lon": "-2.51806", "lat": "51.09434"}, {"DoveID": "ANSLEY", "Place": "Ansley", "Dedicn": "S Lawrence", "Bells": "6", "Practise": "Tue", "ExtraInfo": "", "lon": "-1.57393", "lat": "52.53076"}, {"DoveID": "ANSTEY HTS", "Place": "Anstey", "Dedicn": "S George", "Bells": "6", "Practise": "Tue", "ExtraInfo": "Rung from chancel; not well in tune", "lon": "0.04317", "lat": "51.97676"}, {"DoveID": "ANSTEY LCS", "Place": "Anstey", "Dedicn": "S Mary", "Bells": "8", "Practise": "Wed", "ExtraInfo": "", "lon": "-1.18901", "lat": "52.67199"}, {"DoveID": "ANSTY", "Place": "Ansty", "Dedicn": "S James", "Bells": "4", "Practise": "", "ExtraInfo": "Unringable", "lon": "-1.41341", "lat": "52.44970"}, {"DoveID": "ANTONY", "Place": "Antony", "Dedicn": "S James Gt", "Bells": "6", "Practise": "", "ExtraInfo": "", "lon": "-4.25369", "lat": "50.36927"}, {"DoveID": "ANWICK", "Place": "Anwick", "Dedicn": "S Edith", "Bells": "3", "Practise": "", "ExtraInfo": "Tuning: 1-3 of 5", "lon": "-0.33925", "lat": "53.04144"}, {"DoveID": "APPLEBY CU", "Place": "Appleby", "Dedicn": "S Lawrence", "Bells": "6", "Practise": "Mon", "ExtraInfo": "", "lon": "-2.49170", "lat": "54.57814"}, {"DoveID": "APPLEBY LI", "Place": "Appleby", "Dedicn": "S Bartholomew", "Bells": "6", "Practise": "", "ExtraInfo": "Unringable", "lon": "-0.56049", "lat": "53.62333"}, {"DoveID": "APPLEBYMAG", "Place": "Appleby Magna", "Dedicn": "S Michael & All Angels", "Bells": "6", "Practise": "Mon", "ExtraInfo": "Anti-clockwise; PN shared: 1st: Appleby Magna; exc 1st: Swepstone", "lon": "-1.53555", "lat": "52.68545"}, {"DoveID": "APPLEDORED", "Place": "Appledore", "Dedicn": "S Mary", "Bells": "8", "Practise": "Mon", "ExtraInfo": "", "lon": "-4.19324", "lat": "51.05459"}, {"DoveID": "APPLEDOREK", "Place": "Appledore", "Dedicn": "S Peter & S Paul", "Bells": "8", "Practise": "Fri", "ExtraInfo": "", "lon": "0.79020", "lat": "51.02958"}, {"DoveID": "APPLEFORD", "Place": "Appleford", "Dedicn": "S Peter & S Paul", "Bells": "6", "Practise": "", "ExtraInfo": "Unringable", "lon": "-1.23509", "lat": "51.63966"}, {"DoveID": "APPLETON", "Place": "Appleton", "Dedicn": "S Laurence", "Bells": "10", "Practise": "Fri", "ExtraInfo": "", "lon": "-1.35904", "lat": "51.71084"}, {"DoveID": "APPLETON B", "Place": "Appleton", "Dedicn": "Workshop Campanile (The Balscote Ring)", "Bells": "12", "Practise": "", "ExtraInfo": "Also 2#,4#,5#,8#, and 9#; also 6b (not hung)", "lon": "-1.35950", "lat": "51.71349"}, {"DoveID": "APPLETONLM", "Place": "Appleton le Moors", "Dedicn": "Christ Church", "Bells": "6", "Practise": "", "ExtraInfo": "Unringable", "lon": "-0.87272", "lat": "54.28320"}, {"DoveID": "APSLEY END", "Place": "Apsley End", "Dedicn": "S Mary", "Bells": "6", "Practise": "Mon", "ExtraInfo": "", "lon": "-0.46611", "lat": "51.73465"}, {"DoveID": "ARBORFIELD", "Place": "Arborfield", "Dedicn": "S Bartholomew", "Bells": "6", "Practise": "Fri", "ExtraInfo": "", "lon": "-0.91194", "lat": "51.40432"}, {"DoveID": "ARDELEY", "Place": "Ardeley", "Dedicn": "S Lawrence", "Bells": "6", "Practise": "", "ExtraInfo": "", "lon": "-0.09913", "lat": "51.92744"}, {"DoveID": "ARDINGLY", "Place": "Ardingly", "Dedicn": "S Peter", "Bells": "6", "Practise": "Thu", "ExtraInfo": "", "lon": "-0.09006", "lat": "51.05214"}, {"DoveID": "ARDINGTON", "Place": "Ardington", "Dedicn": "Holy Trinity", "Bells": "6", "Practise": "", "ExtraInfo": "Unringable", "lon": "-1.37844", "lat": "51.59211"}, {"DoveID": "ARDLEIGH", "Place": "Ardleigh", "Dedicn": "S Mary V", "Bells": "8", "Practise": "", "ExtraInfo": "", "lon": "0.98554", "lat": "51.92654"}, {"DoveID": "ARELEY KIN", "Place": "Areley Kings", "Dedicn": "S Bartholomew", "Bells": "6", "Practise": "Thu", "ExtraInfo": "", "lon": "-2.29200", "lat": "52.33685"}, {"DoveID": "ARKESDEN", "Place": "Arkesden", "Dedicn": "S Mary V", "Bells": "6", "Practise": "Wed", "ExtraInfo": "", "lon": "0.15719", "lat": "51.99012"}, {"DoveID": "ARKLOW", "Place": "Arklow", "Dedicn": "S Saviour", "Bells": "8", "Practise": "", "ExtraInfo": "No regular ringing", "lon": "-6.16296", "lat": "52.79818"}, {"DoveID": "ARKSEY", "Place": "Arksey", "Dedicn": "All Saints", "Bells": "8", "Practise": "Thu", "ExtraInfo": "Thu PN shared: Barnby Dun(1st,2nd,3rd); Arksey(4th,any 5th)", "lon": "-1.12709", "lat": "53.55578"}, {"DoveID": "ARLECDON", "Place": "Arlecdon", "Dedicn": "S Michael", "Bells": "8", "Practise": "", "ExtraInfo": "Ringing temporarily suspended", "lon": "-3.46752", "lat": "54.56501"}, {"DoveID": "ARLESEY", "Place": "Arlesey", "Dedicn": "S Peter", "Bells": "6", "Practise": "Fri", "ExtraInfo": "", "lon": "-0.26452", "lat": "52.02347"}, {"DoveID": "ARLEY", "Place": "Arley", "Dedicn": "S Wilfrid", "Bells": "6", "Practise": "", "ExtraInfo": "", "lon": "-1.58431", "lat": "52.51271"}, {"DoveID": "ARLINGHAM", "Place": "Arlingham", "Dedicn": "S Mary V", "Bells": "6", "Practise": "", "ExtraInfo": "Anti-clockwise", "lon": "-2.42702", "lat": "51.79383"}, {"DoveID": "ARLINGTOND", "Place": "Arlington", "Dedicn": "S James", "Bells": "6", "Practise": "", "ExtraInfo": "", "lon": "-3.98461", "lat": "51.14672"}, {"DoveID": "ARLINGTONS", "Place": "Arlington", "Dedicn": "S Pancras", "Bells": "3", "Practise": "", "ExtraInfo": "Unringable", "lon": "0.19000", "lat": "50.84616"}, {"DoveID": "ARMIDALE", "Place": "Armidale", "Dedicn": "Cath Ch of S Peter", "Bells": "8", "Practise": "Thu", "ExtraInfo": "", "lon": "151.66496", "lat": "-30.51499"}, {"DoveID": "ARMITAGE", "Place": "Armitage", "Dedicn": "S John Bapt", "Bells": "6", "Practise": "Mon", "ExtraInfo": "", "lon": "-1.88725", "lat": "52.74597"}, {"DoveID": "ARMITAGEBR", "Place": "Armitage Bridge", "Dedicn": "S Paul", "Bells": "6", "Practise": "Wed", "ExtraInfo": "", "lon": "-1.79862", "lat": "53.61963"}, {"DoveID": "ARNCLIFFE", "Place": "Arncliffe", "Dedicn": "S Oswald", "Bells": "3", "Practise": "", "ExtraInfo": "Tuning: 1,2b,3 of 3", "lon": "-2.10404", "lat": "54.14369"}, {"DoveID": "ARNESBY", "Place": "Arnesby", "Dedicn": "S Peter", "Bells": "6", "Practise": "", "ExtraInfo": "", "lon": "-1.09192", "lat": "52.52389"}, {"DoveID": "ARNOLD", "Place": "Arnold", "Dedicn": "S Mary", "Bells": "8", "Practise": "Thu", "ExtraInfo": "", "lon": "-1.12706", "lat": "53.00941"}, {"DoveID": "ARRETON", "Place": "Arreton", "Dedicn": "S George", "Bells": "6", "Practise": "Mon", "ExtraInfo": "", "lon": "-1.24517", "lat": "50.67803"}, {"DoveID": "ARTHINGWOR", "Place": "Arthingworth", "Dedicn": "S Andrew", "Bells": "6", "Practise": "Wed", "ExtraInfo": "", "lon": "-0.89168", "lat": "52.42556"}, {"DoveID": "ARUNDEL", "Place": "Arundel", "Dedicn": "S Nicholas", "Bells": "8", "Practise": "Mon", "ExtraInfo": "Mon PN alternates: Lyminster:1st,3rd; Arundel: 2nd,4th", "lon": "-0.55708", "lat": "50.85583"}, {"DoveID": "ARUNDEL CA", "Place": "Arundel", "Dedicn": "Chapel of Our Lady", "Bells": "3", "Practise": "", "ExtraInfo": "Ringing restricted (invitees only)", "lon": "-0.55430", "lat": "50.85616"}, {"DoveID": "ASCOTT UND", "Place": "Ascott under Wychwood", "Dedicn": "Holy Trinity", "Bells": "6", "Practise": "", "ExtraInfo": "", "lon": "-1.56494", "lat": "51.86562"}, {"DoveID": "ASFORDBY", "Place": "Asfordby", "Dedicn": "All Saints", "Bells": "6", "Practise": "Mon", "ExtraInfo": "", "lon": "-0.95214", "lat": "52.76339"}, {"DoveID": "ASGARBY", "Place": "Asgarby", "Dedicn": "S Andrew", "Bells": "4", "Practise": "", "ExtraInfo": "Unringable; anti-clockwise; tuning: 1,2,4,5 of 5; former 3/5 cracked ~1830 & 'lost'", "lon": "-0.33843", "lat": "52.99421"}, {"DoveID": "ASH    SOM", "Place": "Ash", "Dedicn": "Holy Trinity", "Bells": "6", "Practise": "Thu", "ExtraInfo": "", "lon": "-2.75290", "lat": "50.98346"}, {"DoveID": "ASH    SUR", "Place": "Ash", "Dedicn": "S Peter", "Bells": "6", "Practise": "Wed", "ExtraInfo": "", "lon": "-0.71560", "lat": "51.24902"}, {"DoveID": "ASH BY WRO", "Place": "Ash by Wrotham", "Dedicn": "S Peter & S Paul", "Bells": "6", "Practise": "Sat", "ExtraInfo": "", "lon": "0.29899", "lat": "51.35753"}, {"DoveID": "ASH NEXT S", "Place": "Ash next Sandwich", "Dedicn": "S Nicholas", "Bells": "10", "Practise": "Fri", "ExtraInfo": "", "lon": "1.27869", "lat": "51.27859"}, {"DoveID": "ASH PRIORS", "Place": "Ash Priors", "Dedicn": "Holy Trinity", "Bells": "6", "Practise": "", "ExtraInfo": "", "lon": "-3.21186", "lat": "51.05835"}, {"DoveID": "ASHBOCKING", "Place": "Ashbocking", "Dedicn": "All Saints", "Bells": "6", "Practise": "", "ExtraInfo": "", "lon": "1.16936", "lat": "52.14622"}, {"DoveID": "ASHBOURNE", "Place": "Ashbourne", "Dedicn": "S Oswald", "Bells": "8", "Practise": "Wed", "ExtraInfo": "Rung from chancel crossing; tuned to old concert pitch (A=454Hz)", "lon": "-1.73871", "lat": "53.01494"}, {"DoveID": "ASHBRITTLE", "Place": "Ashbrittle", "Dedicn": "S John Bapt", "Bells": "6", "Practise": "", "ExtraInfo": "", "lon": "-3.35194", "lat": "50.98370"}, {"DoveID": "ASHBURNHAM", "Place": "Ashburnham", "Dedicn": "S Peter", "Bells": "6", "Practise": "Thu", "ExtraInfo": "", "lon": "0.40142", "lat": "50.90565"}, {"DoveID": "ASHBURTON", "Place": "Ashburton", "Dedicn": "S Andrew", "Bells": "8", "Practise": "Wed", "ExtraInfo": "Former 3rd is on floor of Exeter, S Petrock", "lon": "-3.75728", "lat": "50.51426"}, {"DoveID": "ASHBURY OX", "Place": "Ashbury", "Dedicn": "S Mary V", "Bells": "6", "Practise": "Thu", "ExtraInfo": "Anti-clockwise; PN alternates with Bishopstone", "lon": "-1.61889", "lat": "51.56246"}, {"DoveID": "ASHBY DE L", "Place": "Ashby de la Launde", "Dedicn": "S Hybald", "Bells": "5", "Practise": "", "ExtraInfo": "Unringable", "lon": "-0.42654", "lat": "53.07953"}, {"DoveID": "ASHBY DE Z", "Place": "Ashby de la Zouch", "Dedicn": "S Helen", "Bells": "10", "Practise": "Wed", "ExtraInfo": "", "lon": "-1.46711", "lat": "52.74729"}, {"DoveID": "ASHBY FOLV", "Place": "Ashby Folville", "Dedicn": "S Mary", "Bells": "8", "Practise": "", "ExtraInfo": "", "lon": "-0.95571", "lat": "52.70099"}, {"DoveID": "ASHBY MAGN", "Place": "Ashby Magna", "Dedicn": "S Mary", "Bells": "3", "Practise": "", "ExtraInfo": "", "lon": "-1.17108", "lat": "52.50928"}, {"DoveID": "ASHBY PARV", "Place": "Ashby Parva", "Dedicn": "S Peter", "Bells": "3", "Practise": "", "ExtraInfo": "Tuning: 1-3 of 4", "lon": "-1.22737", "lat": "52.49300"}, {"DoveID": "ASHBY STLE", "Place": "Ashby St Ledgers", "Dedicn": "Blessed Virgin Mary & S Leodegarius", "Bells": "4", "Practise": "", "ExtraInfo": "Tuning: 1,2,3#,4 of 4", "lon": "-1.16073", "lat": "52.30892"}, {"DoveID": "ASHCHURCH", "Place": "Ashchurch", "Dedicn": "S Nicholas", "Bells": "8", "Practise": "Fri", "ExtraInfo": "", "lon": "-2.10704", "lat": "51.99910"}, {"DoveID": "ASHCOMBE", "Place": "Ashcombe", "Dedicn": "S Nectan", "Bells": "3", "Practise": "", "ExtraInfo": "Unringable; derelict; ropes fall in a straight line; no stays or sliders; three-quarter wheels", "lon": "-3.53869", "lat": "50.60555"}, {"DoveID": "ASHCOTT", "Place": "Ashcott", "Dedicn": "All Saints", "Bells": "6", "Practise": "Fri", "ExtraInfo": "", "lon": "-2.80593", "lat": "51.13082"}, {"DoveID": "ASHDON", "Place": "Ashdon", "Dedicn": "All Saints", "Bells": "8", "Practise": "Mon", "ExtraInfo": "", "lon": "0.30399", "lat": "52.04943"}, {"DoveID": "ASHEN", "Place": "Ashen", "Dedicn": "S Augustine", "Bells": "3", "Practise": "", "ExtraInfo": "Tuning: 1-3 of 4", "lon": "0.54677", "lat": "52.05169"}, {"DoveID": "ASHENDON", "Place": "Ashendon", "Dedicn": "S Mary", "Bells": "3", "Practise": "", "ExtraInfo": "Unringable; one bell (or more) cracked or broken", "lon": "-0.97855", "lat": "51.82204"}, {"DoveID": "ASHFORD  K", "Place": "Ashford", "Dedicn": "S Mary V", "Bells": "10", "Practise": "Tue", "ExtraInfo": "The ringing bells form part of an 11-bell chime", "lon": "0.87281", "lat": "51.14864"}, {"DoveID": "ASHFORD  M", "Place": "Ashford", "Dedicn": "S Matthew", "Bells": "5", "Practise": "Thu", "ExtraInfo": "4th (5-1-2) is heavier than tenor", "lon": "-0.45928", "lat": "51.43235"}, {"DoveID": "ASHFORD IN", "Place": "Ashford in the Water", "Dedicn": "Holy Trinity", "Bells": "6", "Practise": "Tue", "ExtraInfo": "", "lon": "-1.70949", "lat": "53.22413"}, {"DoveID": "ASHILL NOR", "Place": "Ashill", "Dedicn": "S Nicholas", "Bells": "8", "Practise": "Thu", "ExtraInfo": "", "lon": "0.78053", "lat": "52.60285"}, {"DoveID": "ASHILL SOM", "Place": "Ashill", "Dedicn": "Blessed Virgin Mary", "Bells": "6", "Practise": "Fri", "ExtraInfo": "", "lon": "-2.96789", "lat": "50.95076"}, {"DoveID": "ASHLEWORTH", "Place": "Ashleworth", "Dedicn": "S Bartholomew", "Bells": "6", "Practise": "", "ExtraInfo": "", "lon": "-2.26550", "lat": "51.92495"}, {"DoveID": "ASHLEY  GL", "Place": "Ashley", "Dedicn": "S James", "Bells": "3", "Practise": "", "ExtraInfo": "Unringable; ropes fall in a straight line; no stays or sliders; tuning: 1-3 of 4", "lon": "-2.10018", "lat": "51.65118"}, {"DoveID": "ASHLEY  NH", "Place": "Ashley", "Dedicn": "S Mary V", "Bells": "5", "Practise": "Mon", "ExtraInfo": "", "lon": "-0.83147", "lat": "52.51123"}, {"DoveID": "ASHOVER", "Place": "Ashover", "Dedicn": "All Saints", "Bells": "10", "Practise": "Tue", "ExtraInfo": "", "lon": "-1.48015", "lat": "53.16400"}, {"DoveID": "ASHOW", "Place": "Ashow", "Dedicn": "Assumption of Our Lady", "Bells": "4", "Practise": "", "ExtraInfo": "No regular ringing; only limited ringing allowed", "lon": "-1.54331", "lat": "52.32910"}, {"DoveID": "ASHREIGNEY", "Place": "Ashreigney", "Dedicn": "S James", "Bells": "6", "Practise": "Mon", "ExtraInfo": "", "lon": "-3.95177", "lat": "50.90575"}, {"DoveID": "ASHTEAD", "Place": "Ashtead", "Dedicn": "S Giles", "Bells": "8", "Practise": "Thu", "ExtraInfo": "", "lon": "-0.29024", "lat": "51.30861"}, {"DoveID": "ASHTON  DE", "Place": "Ashton", "Dedicn": "S John Bapt", "Bells": "6", "Practise": "", "ExtraInfo": "Unringable; tuning: 1b,2-6 of 6", "lon": "-3.61950", "lat": "50.65055"}, {"DoveID": "ASHTON  NH", "Place": "Ashton", "Dedicn": "S Michael & All Angels", "Bells": "5", "Practise": "", "ExtraInfo": "Anti-clockwise; tuning: 1-5 of 6", "lon": "-0.88337", "lat": "52.14278"}, {"DoveID": "ASHTON KEY", "Place": "Ashton Keynes", "Dedicn": "Holy Cross", "Bells": "6", "Practise": "", "ExtraInfo": "Ringing temporarily suspended", "lon": "-1.94132", "lat": "51.64829"}, {"DoveID": "ASHTON UH", "Place": "Ashton under Hill", "Dedicn": "S Barbara", "Bells": "6", "Practise": "Tue", "ExtraInfo": "", "lon": "-2.00637", "lat": "52.03777"}, {"DoveID": "ASHTON ULM", "Place": "Ashton under Lyne", "Dedicn": "S Michael & All Angels", "Bells": "12", "Practise": "", "ExtraInfo": "Also 2#; only limited ringing allowed", "lon": "-2.09009", "lat": "53.48754"}, {"DoveID": "ASHTON ULP", "Place": "Ashton under Lyne", "Dedicn": "S Peter", "Bells": "8", "Practise": "", "ExtraInfo": "", "lon": "-2.10609", "lat": "53.48390"}, {"DoveID": "ASHWATER", "Place": "Ashwater", "Dedicn": "S Peter ad Vincula", "Bells": "6", "Practise": "", "ExtraInfo": "", "lon": "-4.28746", "lat": "50.73419"}, {"DoveID": "ASHWELL HT", "Place": "Ashwell", "Dedicn": "S Mary V", "Bells": "6", "Practise": "Thu", "ExtraInfo": "", "lon": "-0.15425", "lat": "52.04195"}, {"DoveID": "ASHWELL LC", "Place": "Ashwell", "Dedicn": "S Mary", "Bells": "6", "Practise": "", "ExtraInfo": "Unringable", "lon": "-0.72011", "lat": "52.71444"}, {"DoveID": "ASHWELLTHO", "Place": "Ashwellthorpe", "Dedicn": "All Saints", "Bells": "5", "Practise": "", "ExtraInfo": "Unringable", "lon": "1.16375", "lat": "52.53463"}, {"DoveID": "ASHWICK", "Place": "Ashwick", "Dedicn": "S James", "Bells": "6", "Practise": "", "ExtraInfo": "", "lon": "-2.52132", "lat": "51.23379"}, {"DoveID": "ASKERSWELL", "Place": "Askerswell", "Dedicn": "S Michael", "Bells": "6", "Practise": "Thu", "ExtraInfo": "", "lon": "-2.66760", "lat": "50.73099"}, {"DoveID": "ASKRIGG", "Place": "Askrigg", "Dedicn": "S Oswald", "Bells": "6", "Practise": "Mon", "ExtraInfo": "", "lon": "-2.08218", "lat": "54.31470"}, {"DoveID": "ASLACKBY", "Place": "Aslackby", "Dedicn": "S James", "Bells": "3", "Practise": "", "ExtraInfo": "Unringable; tuning: 1,2b,3 of 3", "lon": "-0.38943", "lat": "52.86012"}, {"DoveID": "ASLACTON", "Place": "Aslacton", "Dedicn": "S Michael", "Bells": "5", "Practise": "", "ExtraInfo": "Anti-clockwise; round tower", "lon": "1.17350", "lat": "52.47516"}, {"DoveID": "ASPATRIA", "Place": "Aspatria", "Dedicn": "S Kentigern", "Bells": "8", "Practise": "Thu", "ExtraInfo": "", "lon": "-3.32717", "lat": "54.76483"}, {"DoveID": "ASPENDEN", "Place": "Aspenden", "Dedicn": "S Mary", "Bells": "8", "Practise": "Wed", "ExtraInfo": "", "lon": "-0.03252", "lat": "51.93756"}, {"DoveID": "ASPLEY GUI", "Place": "Aspley Guise", "Dedicn": "S Botolph", "Bells": "6", "Practise": "Mon", "ExtraInfo": "", "lon": "-0.62820", "lat": "52.01664"}, {"DoveID": "ASSINGTON", "Place": "Assington", "Dedicn": "S Edmund K&M", "Bells": "6", "Practise": "", "ExtraInfo": "Ringing prohibited", "lon": "0.81921", "lat": "52.01376"}, {"DoveID": "ASTBURY", "Place": "Astbury", "Dedicn": "S Mary", "Bells": "8", "Practise": "Wed", "ExtraInfo": "", "lon": "-2.23155", "lat": "53.15078"}, {"DoveID": "ASTHALL", "Place": "Asthall", "Dedicn": "S Nicholas", "Bells": "6", "Practise": "", "ExtraInfo": "", "lon": "-1.58519", "lat": "51.80038"}, {"DoveID": "ASTLEY WAR", "Place": "Astley", "Dedicn": "S Mary V", "Bells": "5", "Practise": "", "ExtraInfo": "Tuning: 1-5 of 6", "lon": "-1.54345", "lat": "52.50190"}, {"DoveID": "ASTLEY WOR", "Place": "Astley", "Dedicn": "S Peter", "Bells": "6", "Practise": "", "ExtraInfo": "", "lon": "-2.31309", "lat": "52.30618"}, {"DoveID": "ASTON  HER", "Place": "Aston", "Dedicn": "S Mary", "Bells": "6", "Practise": "Thu", "ExtraInfo": "", "lon": "-0.15378", "lat": "51.88751"}, {"DoveID": "ASTON  OXO", "Place": "Aston", "Dedicn": "S James", "Bells": "6", "Practise": "Wed", "ExtraInfo": "", "lon": "-1.50618", "lat": "51.72514"}, {"DoveID": "ASTON  SYK", "Place": "Aston", "Dedicn": "All Saints", "Bells": "3", "Practise": "", "ExtraInfo": "Unringable; tuning: 1-3 of 4", "lon": "-1.29811", "lat": "53.36205"}, {"DoveID": "ASTON ABBO", "Place": "Aston Abbotts", "Dedicn": "S James Gt", "Bells": "6", "Practise": "Thu", "ExtraInfo": "", "lon": "-0.77066", "lat": "51.87428"}, {"DoveID": "ASTON BOTT", "Place": "Aston Botterell", "Dedicn": "S Michael & All Angels", "Bells": "3", "Practise": "", "ExtraInfo": "", "lon": "-2.54233", "lat": "52.45374"}, {"DoveID": "ASTON CANT", "Place": "Aston Cantlow", "Dedicn": "S John Bapt", "Bells": "6", "Practise": "Wed", "ExtraInfo": "PN shared: Salford Priors(1st), Aston Cantlow(exc 1st)", "lon": "-1.80006", "lat": "52.23677"}, {"DoveID": "ASTON CLIN", "Place": "Aston Clinton", "Dedicn": "S Michael & All Angels", "Bells": "10", "Practise": "Fri", "ExtraInfo": "CC recognised Ringing Centre", "lon": "-0.72641", "lat": "51.79929"}, {"DoveID": "ASTON INGH", "Place": "Aston Ingham", "Dedicn": "S John Bapt", "Bells": "6", "Practise": "", "ExtraInfo": "", "lon": "-2.46152", "lat": "51.90975"}, {"DoveID": "ASTON ON T", "Place": "Aston on Trent", "Dedicn": "All Saints", "Bells": "6", "Practise": "Mon", "ExtraInfo": "", "lon": "-1.38536", "lat": "52.86008"}, {"DoveID": "ASTON ROWA", "Place": "Aston Rowant", "Dedicn": "S Peter & S Paul", "Bells": "6", "Practise": "Tue", "ExtraInfo": "", "lon": "-0.95017", "lat": "51.68518"}, {"DoveID": "ASTON TIRR", "Place": "Aston Tirrold", "Dedicn": "S Michael", "Bells": "6", "Practise": "Wed", "ExtraInfo": "", "lon": "-1.19780", "lat": "51.57076"}, {"DoveID": "ASTWOOD", "Place": "Astwood", "Dedicn": "S Peter", "Bells": "3", "Practise": "", "ExtraInfo": "Unringable; church closed", "lon": "-0.61338", "lat": "52.11651"}, {"DoveID": "ASWARBY", "Place": "Aswarby", "Dedicn": "S Denys", "Bells": "3", "Practise": "", "ExtraInfo": "Unringable; tuning: 1-3 of 4", "lon": "-0.41338", "lat": "52.94592"}, {"DoveID": "ATCHAM", "Place": "Atcham", "Dedicn": "S Eata", "Bells": "6", "Practise": "Thu", "ExtraInfo": "", "lon": "-2.68061", "lat": "52.67855"}, {"DoveID": "ATHERINGTO", "Place": "Atherington", "Dedicn": "S Mary", "Bells": "6", "Practise": "", "ExtraInfo": "", "lon": "-4.00883", "lat": "50.99015"}, {"DoveID": "ATHERSTON2", "Place": "Atherstone", "Dedicn": "S Mary", "Bells": "8", "Practise": "Wed", "ExtraInfo": "Octagonal tower", "lon": "-1.54617", "lat": "52.57862"}, {"DoveID": "ATLANTA", "Place": "Atlanta", "Dedicn": "S Luke", "Bells": "10", "Practise": "Thu", "ExtraInfo": "", "lon": "-84.38504", "lat": "33.76628"}, {"DoveID": "ATTENBOROU", "Place": "Attenborough", "Dedicn": "S Mary V", "Bells": "8", "Practise": "Fri", "ExtraInfo": "", "lon": "-1.23049", "lat": "52.90387"}, {"DoveID": "ATTLEBOROU", "Place": "Attleborough", "Dedicn": "Assumption of BVM", "Bells": "6", "Practise": "Tue", "ExtraInfo": "", "lon": "1.01847", "lat": "52.51789"}, {"DoveID": "ATWORTH", "Place": "Atworth", "Dedicn": "S Michael & All Angels", "Bells": "3", "Practise": "", "ExtraInfo": "Unringable; one bell (or more) cracked or broken; detached tower", "lon": "-2.20420", "lat": "51.39096"}, {"DoveID": "AUBOURN", "Place": "Aubourn", "Dedicn": "The Clock Tower", "Bells": "3", "Practise": "", "ExtraInfo": "Former ch of S Peter; now Parish Council Heritage Room; Parish Council has ultimate control over who may/may not ring", "lon": "-0.62640", "lat": "53.15180"}, {"DoveID": "AUCKLANDNZ", "Place": "Auckland", "Dedicn": "S Matthew in the City", "Bells": "8", "Practise": "Tue", "ExtraInfo": "", "lon": "174.76137", "lat": "-36.85014"}, {"DoveID": "AUDLEM", "Place": "Audlem", "Dedicn": "S James Gt", "Bells": "6", "Practise": "Thu", "ExtraInfo": "", "lon": "-2.50809", "lat": "52.98914"}, {"DoveID": "AUDLEY", "Place": "Audley", "Dedicn": "S James Gt", "Bells": "8", "Practise": "Tue", "ExtraInfo": "", "lon": "-2.30160", "lat": "53.05481"}, {"DoveID": "AUGHTON CH", "Place": "Aughton", "Dedicn": "Christ Church", "Bells": "8", "Practise": "Mon", "ExtraInfo": "", "lon": "-2.90474", "lat": "53.55865"}, {"DoveID": "AUGHTON SM", "Place": "Aughton", "Dedicn": "S Michael", "Bells": "6", "Practise": "Mon", "ExtraInfo": "Rung from north aisle", "lon": "-2.91977", "lat": "53.54189"}, {"DoveID": "AUGUSTA", "Place": "Augusta", "Dedicn": "The Good Shepherd", "Bells": "8", "Practise": "", "ExtraInfo": "Detached tower", "lon": "-82.01464", "lat": "33.47627"}, {"DoveID": "AULT HUCKN", "Place": "Ault Hucknall", "Dedicn": "S John Bapt", "Bells": "8", "Practise": "", "ExtraInfo": "", "lon": "-1.30197", "lat": "53.18216"}, {"DoveID": "AUNSBY", "Place": "Aunsby", "Dedicn": "S Thomas of Canterbury", "Bells": "3", "Practise": "", "ExtraInfo": "Unringable; one bell (or more) cracked or broken", "lon": "-0.44717", "lat": "52.93676"}, {"DoveID": "AUSTREY", "Place": "Austrey", "Dedicn": "S Nicholas", "Bells": "5", "Practise": "Wed", "ExtraInfo": "Anti-clockwise", "lon": "-1.56434", "lat": "52.65345"}, {"DoveID": "AVEBURY", "Place": "Avebury", "Dedicn": "S James", "Bells": "8", "Practise": "Tue", "ExtraInfo": "", "lon": "-1.85804", "lat": "51.42861"}, {"DoveID": "AVENING", "Place": "Avening", "Dedicn": "Holy Cross", "Bells": "6", "Practise": "Tue", "ExtraInfo": "", "lon": "-2.17549", "lat": "51.68060"}, {"DoveID": "AVERHAM", "Place": "Averham", "Dedicn": "S Michael & All Angels", "Bells": "6", "Practise": "Mon", "ExtraInfo": "", "lon": "-0.85500", "lat": "53.08101"}, {"DoveID": "AVINGTON", "Place": "Avington", "Dedicn": "S Mary", "Bells": "5", "Practise": "", "ExtraInfo": "", "lon": "-1.24071", "lat": "51.08711"}, {"DoveID": "AVON DASSE", "Place": "Avon Dassett", "Dedicn": "S John Bapt", "Bells": "5", "Practise": "", "ExtraInfo": "No electricity in tower; only limited ringing allowed", "lon": "-1.40023", "lat": "52.14866"}, {"DoveID": "AWBRIDGE", "Place": "Awbridge", "Dedicn": "Clock House Bells", "Bells": "10", "Practise": "", "ExtraInfo": "", "lon": "-1.54570", "lat": "51.01006"}, {"DoveID": "AWLISCOMBE", "Place": "Awliscombe", "Dedicn": "S Michael & All Angels", "Bells": "6", "Practise": "Tue", "ExtraInfo": "PN alternates with Buckerell", "lon": "-3.23095", "lat": "50.80946"}, {"DoveID": "AWRE", "Place": "Awre", "Dedicn": "S Andrew", "Bells": "6", "Practise": "Fri", "ExtraInfo": "", "lon": "-2.42375", "lat": "51.77035"}, {"DoveID": "AXBRIDGE", "Place": "Axbridge", "Dedicn": "S John Bapt", "Bells": "6", "Practise": "Mon", "ExtraInfo": "", "lon": "-2.81653", "lat": "51.28773"}, {"DoveID": "AXMINSTER", "Place": "Axminster", "Dedicn": "S Mary", "Bells": "10", "Practise": "Wed", "ExtraInfo": "", "lon": "-2.99934", "lat": "50.78170"}, {"DoveID": "AXMOUTH", "Place": "Axmouth", "Dedicn": "S Michael", "Bells": "3", "Practise": "", "ExtraInfo": "Unringable; an exceptionally unusual and interesting bellframe (JGMS); tuning: 1-3 of 5", "lon": "-3.05480", "lat": "50.71418"}, {"DoveID": "AYCLIFFE", "Place": "Aycliffe", "Dedicn": "S Andrew", "Bells": "3", "Practise": "", "ExtraInfo": "Access to ringing chamber is via a vertical ladder", "lon": "-1.56367", "lat": "54.59385"}, {"DoveID": "AYLESBEARE", "Place": "Aylesbeare", "Dedicn": "Blessed Virgin Mary", "Bells": "6", "Practise": "Thu", "ExtraInfo": "", "lon": "-3.36471", "lat": "50.71922"}, {"DoveID": "AYLESBURY", "Place": "Aylesbury", "Dedicn": "S Mary", "Bells": "8", "Practise": "Tue", "ExtraInfo": "", "lon": "-0.81591", "lat": "51.81786"}, {"DoveID": "AYLESFORD", "Place": "Aylesford", "Dedicn": "S Peter & S Paul", "Bells": "8", "Practise": "Tue", "ExtraInfo": "", "lon": "0.47927", "lat": "51.30407"}, {"DoveID": "AYLSHAM", "Place": "Aylsham", "Dedicn": "S Michael", "Bells": "10", "Practise": "Tue", "ExtraInfo": "", "lon": "1.25038", "lat": "52.79603"}, {"DoveID": "AYMESTREY", "Place": "Aymestrey", "Dedicn": "S John Bapt & S Alkmund", "Bells": "6", "Practise": "", "ExtraInfo": "Anti-clockwise", "lon": "-2.84294", "lat": "52.28131"}, {"DoveID": "AYNHO", "Place": "Aynho", "Dedicn": "S Michael", "Bells": "8", "Practise": "Tue", "ExtraInfo": "", "lon": "-1.25224", "lat": "51.99360"}, {"DoveID": "AYSGARTH", "Place": "Aysgarth", "Dedicn": "S Andrew", "Bells": "6", "Practise": "", "ExtraInfo": "", "lon": "-1.98333", "lat": "54.29238"}, {"DoveID": "AYSTON", "Place": "Ayston", "Dedicn": "S Mary V", "Bells": "4", "Practise": "", "ExtraInfo": "", "lon": "-0.73267", "lat": "52.59968"}, {"DoveID": "AYTHORPE R", "Place": "Aythorpe Roding", "Dedicn": "S Mary", "Bells": "3", "Practise": "", "ExtraInfo": "Unringable; no stays or sliders", "lon": "0.29693", "lat": "51.81433"}, {"DoveID": "BABCARY", "Place": "Babcary", "Dedicn": "Holy Cross", "Bells": "6", "Practise": "Tue", "ExtraInfo": "", "lon": "-2.62725", "lat": "51.05665"}, {"DoveID": "BABWORTH", "Place": "Babworth", "Dedicn": "All Saints", "Bells": "6", "Practise": "Mon", "ExtraInfo": "", "lon": "-0.97138", "lat": "53.32006"}, {"DoveID": "BACKFORD", "Place": "Backford", "Dedicn": "S Oswald", "Bells": "6", "Practise": "Tue", "ExtraInfo": "", "lon": "-2.90348", "lat": "53.23877"}, {"DoveID": "BACKWELL", "Place": "Backwell", "Dedicn": "S Andrew", "Bells": "10", "Practise": "Wed", "ExtraInfo": "", "lon": "-2.73039", "lat": "51.41171"}, {"DoveID": "BACTON HFS", "Place": "Bacton", "Dedicn": "S Faith", "Bells": "4", "Practise": "", "ExtraInfo": "Tuning: 1-4 of 6", "lon": "-2.91771", "lat": "51.98628"}, {"DoveID": "BACTON NOR", "Place": "Bacton", "Dedicn": "S Andrew", "Bells": "6", "Practise": "", "ExtraInfo": "", "lon": "1.46746", "lat": "52.85003"}, {"DoveID": "BACTON SUF", "Place": "Bacton", "Dedicn": "S Mary V", "Bells": "6", "Practise": "", "ExtraInfo": "Tower notice(s) / pNBR info discrepant", "lon": "1.00706", "lat": "52.26458"}, {"DoveID": "BACUP CHCH", "Place": "Bacup", "Dedicn": "Christ Church", "Bells": "8", "Practise": "", "ExtraInfo": "Unringable; church building is up for sale / under offer; church closed", "lon": "-2.19370", "lat": "53.70669"}, {"DoveID": "BADBY", "Place": "Badby", "Dedicn": "S Mary", "Bells": "6", "Practise": "Wed", "ExtraInfo": "", "lon": "-1.18230", "lat": "52.22399"}, {"DoveID": "BADGEWORTH", "Place": "Badgeworth", "Dedicn": "Holy Trinity", "Bells": "6", "Practise": "Fri", "ExtraInfo": "", "lon": "-2.14465", "lat": "51.87160"}, {"DoveID": "BADGWORTH", "Place": "Badgworth", "Dedicn": "S Congar", "Bells": "5", "Practise": "", "ExtraInfo": "Unringable; restoration work under way; tower cracked", "lon": "-2.86752", "lat": "51.26943"}, {"DoveID": "BADINGHAM", "Place": "Badingham", "Dedicn": "S John Bapt", "Bells": "5", "Practise": "", "ExtraInfo": "", "lon": "1.37724", "lat": "52.26466"}, {"DoveID": "BADMINTON", "Place": "Badminton", "Dedicn": "S Michael & All Angels", "Bells": "3", "Practise": "", "ExtraInfo": "Ringing restricted (invitees only)", "lon": "-2.28015", "lat": "51.54443"}, {"DoveID": "BADSEY", "Place": "Badsey", "Dedicn": "S James", "Bells": "8", "Practise": "Mon", "ExtraInfo": "", "lon": "-1.89796", "lat": "52.08634"}, {"DoveID": "BADSWORTH", "Place": "Badsworth", "Dedicn": "S Mary V", "Bells": "6", "Practise": "Fri", "ExtraInfo": "", "lon": "-1.30103", "lat": "53.62919"}, {"DoveID": "BADWELL AS", "Place": "Badwell Ash", "Dedicn": "S Mary", "Bells": "5", "Practise": "", "ExtraInfo": "", "lon": "0.91513", "lat": "52.28290"}, {"DoveID": "BAGLAN", "Place": "Baglan", "Dedicn": "S Catharine", "Bells": "6", "Practise": "Tue", "ExtraInfo": "", "lon": "-3.80279", "lat": "51.61497"}, {"DoveID": "BAGSHOT", "Place": "Bagshot", "Dedicn": "S Anne", "Bells": "8", "Practise": "Thu", "ExtraInfo": "", "lon": "-0.69902", "lat": "51.36064"}, {"DoveID": "BAINTON", "Place": "Bainton", "Dedicn": "S Mary", "Bells": "4", "Practise": "", "ExtraInfo": "Unringable; one bell (or more) cracked or broken", "lon": "-0.38413", "lat": "52.64115"}, {"DoveID": "BAKEWELL", "Place": "Bakewell", "Dedicn": "All Saints", "Bells": "8", "Practise": "Thu", "ExtraInfo": "", "lon": "-1.67866", "lat": "53.21298"}, {"DoveID": "BALCOMBE", "Place": "Balcombe", "Dedicn": "S Mary", "Bells": "8", "Practise": "Tue", "ExtraInfo": "", "lon": "-0.13638", "lat": "51.06257"}, {"DoveID": "BALDERSBY", "Place": "Baldersby", "Dedicn": "S James", "Bells": "8", "Practise": "", "ExtraInfo": "Unringable; tower unsafe", "lon": "-1.44053", "lat": "54.18700"}, {"DoveID": "BALDERTON", "Place": "Balderton", "Dedicn": "S Giles", "Bells": "8", "Practise": "Mon", "ExtraInfo": "Tower notice(s) / pNBR info discrepant; county books / pNBR info discrepant", "lon": "-0.77823", "lat": "53.05531"}, {"DoveID": "BALDOCK", "Place": "Baldock", "Dedicn": "S Mary V", "Bells": "8", "Practise": "Wed", "ExtraInfo": "", "lon": "-0.19000", "lat": "51.98969"}, {"DoveID": "BALE", "Place": "Bale", "Dedicn": "All Saints", "Bells": "5", "Practise": "", "ExtraInfo": "Unringable", "lon": "0.98761", "lat": "52.89062"}, {"DoveID": "BALLARATSP", "Place": "Ballarat", "Dedicn": "S Peter", "Bells": "8", "Practise": "Wed", "ExtraInfo": "", "lon": "143.84043", "lat": "-37.56040"}, {"DoveID": "BALLARATTH", "Place": "Ballarat", "Dedicn": "Town Hall", "Bells": "8", "Practise": "Sun", "ExtraInfo": "Also a 16-bell chime in a separate glass tower; tuned to old concert pitch (A=454Hz)", "lon": "143.85673", "lat": "-37.56214"}, {"DoveID": "BALLINGHAM", "Place": "Ballingham", "Dedicn": "S Dubricius", "Bells": "3", "Practise": "", "ExtraInfo": "Unringable; one bell (or more) cracked or broken; derelict", "lon": "-2.61890", "lat": "51.98169"}, {"DoveID": "BALLYLESSO", "Place": "Ballylesson", "Dedicn": "Holy Trinity", "Bells": "8", "Practise": "Thu", "ExtraInfo": "", "lon": "-5.94721", "lat": "54.53632"}, {"DoveID": "BALLYMENA", "Place": "Ballymena", "Dedicn": "S Patrick", "Bells": "12", "Practise": "Fri", "ExtraInfo": "", "lon": "-6.27319", "lat": "54.86291"}, {"DoveID": "BALSHAM", "Place": "Balsham", "Dedicn": "Holy Trinity", "Bells": "6", "Practise": "Tue", "ExtraInfo": "", "lon": "0.31829", "lat": "52.13318"}, {"DoveID": "BALTONSBOR", "Place": "Baltonsborough", "Dedicn": "S Dunstan", "Bells": "6", "Practise": "Tue", "ExtraInfo": "", "lon": "-2.65628", "lat": "51.11050"}, {"DoveID": "BAMBER BRI", "Place": "Bamber Bridge", "Dedicn": "S Mary", "Bells": "8", "Practise": "", "ExtraInfo": "", "lon": "-2.66753", "lat": "53.73019"}, {"DoveID": "BAMBURGH", "Place": "Bamburgh", "Dedicn": "S Aidan", "Bells": "8", "Practise": "Tue", "ExtraInfo": "Tower notice(s) / pNBR info discrepant", "lon": "-1.71850", "lat": "55.60796"}, {"DoveID": "BAMFORD IN", "Place": "Bamford in the Peak", "Dedicn": "S John Bapt", "Bells": "6", "Practise": "Wed", "ExtraInfo": "PN shared with Hathersage", "lon": "-1.68977", "lat": "53.34691"}, {"DoveID": "BAMPTON CU", "Place": "Bampton", "Dedicn": "S Patrick", "Bells": "6", "Practise": "", "ExtraInfo": "Also, above, a ring of 5 (ringing fittings removed)", "lon": "-2.74145", "lat": "54.55528"}, {"DoveID": "BAMPTON DV", "Place": "Bampton", "Dedicn": "S Michael & All Angels", "Bells": "6", "Practise": "Thu", "ExtraInfo": "", "lon": "-3.48818", "lat": "50.99011"}, {"DoveID": "BAMPTON OX", "Place": "Bampton", "Dedicn": "S Mary", "Bells": "8", "Practise": "Mon", "ExtraInfo": "", "lon": "-1.54864", "lat": "51.72774"}, {"DoveID": "BANBURY MA", "Place": "Banbury", "Dedicn": "S Mary", "Bells": "10", "Practise": "Wed", "ExtraInfo": "The ringing bells form part of a 12-bell chime", "lon": "-1.33938", "lat": "52.06151"}, {"DoveID": "BANBURY RC", "Place": "Banbury", "Dedicn": "S John", "Bells": "3", "Practise": "", "ExtraInfo": "Unringable", "lon": "-1.33993", "lat": "52.05796"}, {"DoveID": "BANDON", "Place": "Bandon", "Dedicn": "S Peter", "Bells": "6", "Practise": "Wed", "ExtraInfo": "", "lon": "-8.73994", "lat": "51.74357"}, {"DoveID": "BANGOR  D", "Place": "Bangor", "Dedicn": "S Comgall", "Bells": "8", "Practise": "Fri", "ExtraInfo": "County books / pNBR info discrepant", "lon": "-5.66684", "lat": "54.66059"}, {"DoveID": "BANGOR  G", "Place": "Bangor", "Dedicn": "S David", "Bells": "8", "Practise": "", "ExtraInfo": "Church closed; ringing prohibited", "lon": "-4.13870", "lat": "53.21958"}, {"DoveID": "BANGOR OND", "Place": "Bangor on Dee", "Dedicn": "S Dunawd", "Bells": "6", "Practise": "", "ExtraInfo": "", "lon": "-2.91259", "lat": "53.00241"}, {"DoveID": "BANHAM", "Place": "Banham", "Dedicn": "S Mary", "Bells": "6", "Practise": "Tue", "ExtraInfo": "", "lon": "1.03511", "lat": "52.45298"}, {"DoveID": "BANSTEAD", "Place": "Banstead", "Dedicn": "All Saints", "Bells": "8", "Practise": "Wed", "ExtraInfo": "", "lon": "-0.20092", "lat": "51.32195"}, {"DoveID": "BANWELL", "Place": "Banwell", "Dedicn": "S Andrew", "Bells": "10", "Practise": "Wed", "ExtraInfo": "", "lon": "-2.86349", "lat": "51.32815"}, {"DoveID": "BARBON", "Place": "Barbon", "Dedicn": "S Bartholomew", "Bells": "6", "Practise": "Thu", "ExtraInfo": "", "lon": "-2.56825", "lat": "54.23653"}, {"DoveID": "BARBY", "Place": "Barby", "Dedicn": "S Mary", "Bells": "5", "Practise": "Mon", "ExtraInfo": "", "lon": "-1.20426", "lat": "52.32808"}, {"DoveID": "BARCOMBE", "Place": "Barcombe", "Dedicn": "S Mary V", "Bells": "6", "Practise": "Thu", "ExtraInfo": "", "lon": "0.01634", "lat": "50.91087"}, {"DoveID": "BARDNEY", "Place": "Bardney", "Dedicn": "S Laurence", "Bells": "6", "Practise": "", "ExtraInfo": "", "lon": "-0.32563", "lat": "53.20948"}, {"DoveID": "BARDON", "Place": "Bardon", "Dedicn": "S Peter", "Bells": "3", "Practise": "", "ExtraInfo": "", "lon": "-1.33600", "lat": "52.70903"}, {"DoveID": "BARDSEY", "Place": "Bardsey", "Dedicn": "All Hallows", "Bells": "3", "Practise": "", "ExtraInfo": "Unringable", "lon": "-1.44544", "lat": "53.88301"}, {"DoveID": "BARDWELL", "Place": "Bardwell", "Dedicn": "S Peter & S Paul", "Bells": "8", "Practise": "Wed", "ExtraInfo": "", "lon": "0.84683", "lat": "52.32624"}, {"DoveID": "BARFORD", "Place": "Barford", "Dedicn": "S Peter", "Bells": "6", "Practise": "Mon", "ExtraInfo": "", "lon": "-1.60268", "lat": "52.24567"}, {"DoveID": "BARFORD ST", "Place": "Barford St Martin", "Dedicn": "S Martin", "Bells": "6", "Practise": "", "ExtraInfo": "Rung from chancel crossing", "lon": "-1.92056", "lat": "51.08180"}, {"DoveID": "BARHAM KNT", "Place": "Barham", "Dedicn": "S John Bapt", "Bells": "5", "Practise": "Mon", "ExtraInfo": "", "lon": "1.16178", "lat": "51.20648"}, {"DoveID": "BARHAM SFK", "Place": "Barham", "Dedicn": "S Mary", "Bells": "4", "Practise": "", "ExtraInfo": "Unringable; one bell (or more) cracked or broken; tuning: (approx) 1-4 of 5", "lon": "1.11937", "lat": "52.11552"}, {"DoveID": "BARHOLM", "Place": "Barholm", "Dedicn": "S Martin", "Bells": "3", "Practise": "", "ExtraInfo": "Ropes fall in a straight line; no stays or sliders; tuning: 1-3 of 5", "lon": "-0.38897", "lat": "52.68550"}, {"DoveID": "BARKBY", "Place": "Barkby", "Dedicn": "S Mary", "Bells": "6", "Practise": "Tue", "ExtraInfo": "Tue PN shared: Barkby; Queniborough", "lon": "-1.05969", "lat": "52.68267"}, {"DoveID": "BARKESTONE", "Place": "Barkestone le Vale", "Dedicn": "S Peter & S Paul", "Bells": "4", "Practise": "", "ExtraInfo": "Unringable", "lon": "-0.84517", "lat": "52.90629"}, {"DoveID": "BARKHAM", "Place": "Barkham", "Dedicn": "S James", "Bells": "4", "Practise": "Wed", "ExtraInfo": "Although normally upstairs, GF (porch) ringing also possible", "lon": "-0.87468", "lat": "51.39142"}, {"DoveID": "BARKING GL", "Place": "Barking", "Dedicn": "S Margaret", "Bells": "8", "Practise": "Thu", "ExtraInfo": "", "lon": "0.07559", "lat": "51.53549"}, {"DoveID": "BARKING SU", "Place": "Barking", "Dedicn": "S Mary", "Bells": "6", "Practise": "Mon", "ExtraInfo": "", "lon": "1.03287", "lat": "52.14126"}, {"DoveID": "BARKINGSID", "Place": "Barkingside", "Dedicn": "S George", "Bells": "8", "Practise": "Tue", "ExtraInfo": "", "lon": "0.06376", "lat": "51.57887"}, {"DoveID": "BARKSTON", "Place": "Barkston", "Dedicn": "S Nicholas", "Bells": "6", "Practise": "Mon", "ExtraInfo": "", "lon": "-0.61271", "lat": "52.96299"}, {"DoveID": "BARKWAY", "Place": "Barkway", "Dedicn": "S Mary Magd", "Bells": "8", "Practise": "Mon", "ExtraInfo": "", "lon": "0.01271", "lat": "52.00169"}, {"DoveID": "BARLASTON", "Place": "Barlaston", "Dedicn": "S John Bapt", "Bells": "6", "Practise": "Fri", "ExtraInfo": "", "lon": "-2.16247", "lat": "52.94213"}, {"DoveID": "BARLBOROUG", "Place": "Barlborough", "Dedicn": "S James", "Bells": "6", "Practise": "", "ExtraInfo": "", "lon": "-1.28611", "lat": "53.28952"}, {"DoveID": "BARLEY", "Place": "Barley", "Dedicn": "S Margaret of Antioch", "Bells": "6", "Practise": "Tue", "ExtraInfo": "One bell (or more) cracked or broken", "lon": "0.04143", "lat": "52.02647"}, {"DoveID": "BARMBYMOOR", "Place": "Barmby Moor", "Dedicn": "S Catherine", "Bells": "6", "Practise": "", "ExtraInfo": "", "lon": "-0.81916", "lat": "53.93075"}, {"DoveID": "BARMING", "Place": "Barming", "Dedicn": "S Margaret of Antioch", "Bells": "6", "Practise": "Fri", "ExtraInfo": "", "lon": "0.46375", "lat": "51.26119"}, {"DoveID": "BARMOUTH", "Place": "Barmouth", "Dedicn": "S John", "Bells": "8", "Practise": "", "ExtraInfo": "", "lon": "-4.05449", "lat": "52.72319"}, {"DoveID": "BARNACK", "Place": "Barnack", "Dedicn": "S John Bapt", "Bells": "6", "Practise": "Thu", "ExtraInfo": "", "lon": "-0.40695", "lat": "52.63258"}, {"DoveID": "BARNARD CA", "Place": "Barnard Castle", "Dedicn": "S Mary V", "Bells": "8", "Practise": "Mon", "ExtraInfo": "", "lon": "-1.92326", "lat": "54.54177"}, {"DoveID": "BARNARDIST", "Place": "Barnardiston", "Dedicn": "All Saints", "Bells": "5", "Practise": "", "ExtraInfo": "Unringable", "lon": "0.49826", "lat": "52.11018"}, {"DoveID": "BARNBURGH", "Place": "Barnburgh", "Dedicn": "S Peter", "Bells": "5", "Practise": "", "ExtraInfo": "", "lon": "-1.27138", "lat": "53.52336"}, {"DoveID": "BARNBY DUN", "Place": "Barnby Dun", "Dedicn": "S Peter & S Paul", "Bells": "6", "Practise": "Thu", "ExtraInfo": "Thu PN shared: Barnby Dun(1st,2nd,3rd); Arksey(4th,any 5th)", "lon": "-1.07408", "lat": "53.58057"}, {"DoveID": "BARNBY IN", "Place": "Barnby in the Willows", "Dedicn": "All Saints", "Bells": "6", "Practise": "Tue", "ExtraInfo": "", "lon": "-0.71787", "lat": "53.06004"}, {"DoveID": "BARNES", "Place": "Barnes", "Dedicn": "S Mary", "Bells": "8", "Practise": "Fri", "ExtraInfo": "", "lon": "-0.24205", "lat": "51.47489"}, {"DoveID": "BARNET", "Place": "Barnet", "Dedicn": "S John Bapt", "Bells": "8", "Practise": "Mon", "ExtraInfo": "", "lon": "-0.20120", "lat": "51.65310"}, {"DoveID": "BARNETBY", "Place": "Barnetby le Wold", "Dedicn": "S Mary", "Bells": "3", "Practise": "", "ExtraInfo": "Unringable; derelict", "lon": "-0.39877", "lat": "53.56756"}, {"DoveID": "BARNHAM", "Place": "Barnham", "Dedicn": "S Gregory", "Bells": "4", "Practise": "", "ExtraInfo": "Unringable; one bell (or more) cracked or broken", "lon": "0.74732", "lat": "52.37899"}, {"DoveID": "BARNHAM BR", "Place": "Barnham Broom", "Dedicn": "S Peter & S Paul", "Bells": "5", "Practise": "Mon", "ExtraInfo": "Tuning: (approx) 1-5 of 6", "lon": "1.07510", "lat": "52.62786"}, {"DoveID": "BARNINGHAM", "Place": "Barningham", "Dedicn": "S Andrew", "Bells": "3", "Practise": "", "ExtraInfo": "Unringable", "lon": "0.88796", "lat": "52.35474"}, {"DoveID": "BARNOLDBYL", "Place": "Barnoldby le Beck", "Dedicn": "S Helen", "Bells": "5", "Practise": "Fri", "ExtraInfo": "", "lon": "-0.13845", "lat": "53.51199"}, {"DoveID": "BARNOLDSWI", "Place": "Barnoldswick", "Dedicn": "S Mary le Ghyll", "Bells": "6", "Practise": "Tue", "ExtraInfo": "", "lon": "-2.16447", "lat": "53.92817"}, {"DoveID": "BARNSLEY G", "Place": "Barnsley", "Dedicn": "S Mary", "Bells": "6", "Practise": "Wed", "ExtraInfo": "", "lon": "-1.88961", "lat": "51.74447"}, {"DoveID": "BARNSLEY Y", "Place": "Barnsley", "Dedicn": "S Mary", "Bells": "8", "Practise": "Tue", "ExtraInfo": "", "lon": "-1.48320", "lat": "53.55538"}, {"DoveID": "BARNSTAPLE", "Place": "Barnstaple", "Dedicn": "S Peter & S Mary Magd", "Bells": "8", "Practise": "Fri", "ExtraInfo": "Rung from south aisle", "lon": "-4.05940", "lat": "51.08007"}, {"DoveID": "BARNWOOD", "Place": "Barnwood", "Dedicn": "S Lawrence", "Bells": "8", "Practise": "Mon", "ExtraInfo": "", "lon": "-2.20712", "lat": "51.85813"}, {"DoveID": "BARRINGT C", "Place": "Barrington", "Dedicn": "All Saints", "Bells": "6", "Practise": "Mon", "ExtraInfo": "", "lon": "0.03890", "lat": "52.13041"}, {"DoveID": "BARRINGT S", "Place": "Barrington", "Dedicn": "Blessed Virgin Mary", "Bells": "6", "Practise": "", "ExtraInfo": "", "lon": "-2.87121", "lat": "50.95924"}, {"DoveID": "BARROW", "Place": "Barrow", "Dedicn": "All Saints", "Bells": "6", "Practise": "Thu", "ExtraInfo": "PN shared: Barrow, Horringer", "lon": "0.57710", "lat": "52.25152"}, {"DoveID": "BARROW GUR", "Place": "Barrow Gurney", "Dedicn": "Blessed Virgin Mary & S Edward K&M", "Bells": "8", "Practise": "Wed", "ExtraInfo": "", "lon": "-2.69943", "lat": "51.41306"}, {"DoveID": "BARROW IN", "Place": "Barrow in Furness", "Dedicn": "S James Gt", "Bells": "8", "Practise": "Wed", "ExtraInfo": "", "lon": "-3.23337", "lat": "54.11903"}, {"DoveID": "BARROW UH", "Place": "Barrow upon Humber", "Dedicn": "Holy Trinity", "Bells": "12", "Practise": "Mon", "ExtraInfo": "CC recognised Ringing Centre", "lon": "-0.37854", "lat": "53.67841"}, {"DoveID": "BARROW US", "Place": "Barrow upon Soar", "Dedicn": "Holy Trinity", "Bells": "8", "Practise": "Thu", "ExtraInfo": "", "lon": "-1.14765", "lat": "52.75272"}, {"DoveID": "BARROW UT", "Place": "Barrow upon Trent", "Dedicn": "S Wilfrid", "Bells": "3", "Practise": "", "ExtraInfo": "Anti-clockwise; tuning: (approx) 1-3 of 5", "lon": "-1.47750", "lat": "52.85185"}, {"DoveID": "BARROWBY", "Place": "Barrowby", "Dedicn": "All Saints", "Bells": "6", "Practise": "Wed", "ExtraInfo": "", "lon": "-0.69488", "lat": "52.91861"}, {"DoveID": "BARROWDEN", "Place": "Barrowden", "Dedicn": "S Peter", "Bells": "6", "Practise": "Wed", "ExtraInfo": "", "lon": "-0.60691", "lat": "52.58871"}, {"DoveID": "BARSHAM", "Place": "Barsham", "Dedicn": "Holy Trinity", "Bells": "5", "Practise": "Tue", "ExtraInfo": "Round tower", "lon": "1.52596", "lat": "52.45200"}, {"DoveID": "BARSTON", "Place": "Barston", "Dedicn": "S Swithin", "Bells": "6", "Practise": "Thu", "ExtraInfo": "", "lon": "-1.69673", "lat": "52.39973"}, {"DoveID": "BARTHOMLEY", "Place": "Barthomley", "Dedicn": "S Bertoline", "Bells": "8", "Practise": "", "ExtraInfo": "", "lon": "-2.34842", "lat": "53.06806"}, {"DoveID": "BARTLOW", "Place": "Bartlow", "Dedicn": "S Mary", "Bells": "3", "Practise": "", "ExtraInfo": "Unringable; anti-clockwise; round tower", "lon": "0.31300", "lat": "52.08230"}, {"DoveID": "BARTON  CB", "Place": "Barton", "Dedicn": "S Peter", "Bells": "6", "Practise": "Thu", "ExtraInfo": "", "lon": "0.05746", "lat": "52.18186"}, {"DoveID": "BARTON  NY", "Place": "Barton", "Dedicn": "S Cuthbert & S Mary", "Bells": "6", "Practise": "", "ExtraInfo": "", "lon": "-1.64588", "lat": "54.47543"}, {"DoveID": "BARTON IN", "Place": "Barton in Fabis", "Dedicn": "S George", "Bells": "6", "Practise": "", "ExtraInfo": "", "lon": "-1.22514", "lat": "52.88973"}, {"DoveID": "BARTON LE", "Place": "Barton le Clay", "Dedicn": "S Nicholas", "Bells": "8", "Practise": "Mon", "ExtraInfo": "", "lon": "-0.42188", "lat": "51.96149"}, {"DoveID": "BARTON MIL", "Place": "Barton Mills", "Dedicn": "S Mary", "Bells": "3", "Practise": "", "ExtraInfo": "Unringable; tuning: 1-3 of 4", "lon": "0.51839", "lat": "52.33554"}, {"DoveID": "BARTON SAI", "Place": "Barton St David", "Dedicn": "S David", "Bells": "6", "Practise": "Mon", "ExtraInfo": "Octagonal tower; PN shared: Barton St David, Kingweston, West Lydford", "lon": "-2.65846", "lat": "51.08286"}, {"DoveID": "BARTON SEA", "Place": "Barton Seagrave", "Dedicn": "S Botolph", "Bells": "8", "Practise": "Mon", "ExtraInfo": "Anti-clockwise", "lon": "-0.69612", "lat": "52.38465"}, {"DoveID": "BARTON STA", "Place": "Barton Stacey", "Dedicn": "All Saints", "Bells": "6", "Practise": "Wed", "ExtraInfo": "", "lon": "-1.37955", "lat": "51.16795"}, {"DoveID": "BARTON TUR", "Place": "Barton Turf", "Dedicn": "S Michael", "Bells": "6", "Practise": "", "ExtraInfo": "", "lon": "1.47007", "lat": "52.74362"}, {"DoveID": "BARTON UND", "Place": "Barton under Needwood", "Dedicn": "S James", "Bells": "8", "Practise": "Wed", "ExtraInfo": "", "lon": "-1.72318", "lat": "52.76409"}, {"DoveID": "BARTON UPM", "Place": "Barton upon Humber", "Dedicn": "S Mary", "Bells": "8", "Practise": "Tue", "ExtraInfo": "", "lon": "-0.43700", "lat": "53.68451"}, {"DoveID": "BARTON UPP", "Place": "Barton upon Humber", "Dedicn": "S Peter", "Bells": "8", "Practise": "", "ExtraInfo": "Restoration work under way; owner: English Heritage", "lon": "-0.43493", "lat": "53.68378"}, {"DoveID": "BARWELL", "Place": "Barwell", "Dedicn": "S Mary", "Bells": "8", "Practise": "Tue", "ExtraInfo": "", "lon": "-1.34696", "lat": "52.56451"}, {"DoveID": "BARWICK IN", "Place": "Barwick in Elmet", "Dedicn": "All Saints", "Bells": "6", "Practise": "Thu", "ExtraInfo": "", "lon": "-1.39269", "lat": "53.83138"}, {"DoveID": "BASCHURCH", "Place": "Baschurch", "Dedicn": "All Saints", "Bells": "6", "Practise": "Thu", "ExtraInfo": "", "lon": "-2.85842", "lat": "52.79137"}, {"DoveID": "BASILDON", "Place": "Basildon", "Dedicn": "S Martin of Tours", "Bells": "8", "Practise": "Wed", "ExtraInfo": "Detached tower", "lon": "0.45521", "lat": "51.57061"}, {"DoveID": "BASINGST A", "Place": "Basingstoke", "Dedicn": "All Saints", "Bells": "10", "Practise": "Mon", "ExtraInfo": "", "lon": "-1.08826", "lat": "51.26068"}, {"DoveID": "BASINGST M", "Place": "Basingstoke", "Dedicn": "S Michael", "Bells": "8", "Practise": "Wed", "ExtraInfo": "", "lon": "-1.08914", "lat": "51.26522"}, {"DoveID": "BASLOW", "Place": "Baslow", "Dedicn": "S Anne", "Bells": "6", "Practise": "", "ExtraInfo": "", "lon": "-1.62424", "lat": "53.24741"}, {"DoveID": "BASSALEG", "Place": "Bassaleg", "Dedicn": "S Basil", "Bells": "8", "Practise": "", "ExtraInfo": "", "lon": "-3.04451", "lat": "51.57835"}, {"DoveID": "BASSINGBOU", "Place": "Bassingbourn", "Dedicn": "S Peter & S Paul", "Bells": "6", "Practise": "Tue", "ExtraInfo": "", "lon": "-0.05994", "lat": "52.07899"}, {"DoveID": "BASSINGHAM", "Place": "Bassingham", "Dedicn": "S Michael & All Angels", "Bells": "6", "Practise": "Mon", "ExtraInfo": "PN alternates with Norton Disney", "lon": "-0.64464", "lat": "53.12703"}, {"DoveID": "BASTON", "Place": "Baston", "Dedicn": "S John Bapt", "Bells": "6", "Practise": "Thu", "ExtraInfo": "Anti-clockwise", "lon": "-0.35290", "lat": "52.71201"}, {"DoveID": "BASWICH", "Place": "Baswich", "Dedicn": "Holy Trinity", "Bells": "3", "Practise": "", "ExtraInfo": "Anti-clockwise; tuning: 1-3 of 5", "lon": "-2.08491", "lat": "52.79821"}, {"DoveID": "BATCOMBE", "Place": "Batcombe", "Dedicn": "Blessed Virgin Mary", "Bells": "6", "Practise": "Thu", "ExtraInfo": "", "lon": "-2.44462", "lat": "51.14964"}, {"DoveID": "BATH    AB", "Place": "Bath", "Dedicn": "Abbey Ch of S Peter & S Paul", "Bells": "10", "Practise": "Mon", "ExtraInfo": "Anti-clockwise", "lon": "-2.35875", "lat": "51.38144"}, {"DoveID": "BATH   MIC", "Place": "Bath", "Dedicn": "S Michael", "Bells": "8", "Practise": "", "ExtraInfo": "", "lon": "-2.35974", "lat": "51.38348"}, {"DoveID": "BATH BW", "Place": "Bath", "Dedicn": "Blessed Virgin Mary", "Bells": "10", "Practise": "Wed", "ExtraInfo": "", "lon": "-2.35115", "lat": "51.38421"}, {"DoveID": "BATH LANSD", "Place": "Bath", "Dedicn": "S Stephen", "Bells": "6", "Practise": "Mon", "ExtraInfo": "", "lon": "-2.36357", "lat": "51.39259"}, {"DoveID": "BATH LAR", "Place": "Bath", "Dedicn": "S Saviour", "Bells": "8", "Practise": "Wed", "ExtraInfo": "", "lon": "-2.34659", "lat": "51.39548"}, {"DoveID": "BATH TWE", "Place": "Bath", "Dedicn": "S Michael", "Bells": "8", "Practise": "", "ExtraInfo": "", "lon": "-2.39824", "lat": "51.38091"}, {"DoveID": "BATH WAL", "Place": "Bath", "Dedicn": "Christ Church", "Bells": "8", "Practise": "Sat", "ExtraInfo": "", "lon": "-2.36262", "lat": "51.38767"}, {"DoveID": "BATH WES", "Place": "Bath", "Dedicn": "All Saints", "Bells": "8", "Practise": "", "ExtraInfo": "", "lon": "-2.38858", "lat": "51.39553"}, {"DoveID": "BATH WID", "Place": "Bath", "Dedicn": "S Matthew", "Bells": "6", "Practise": "", "ExtraInfo": "", "lon": "-2.35214", "lat": "51.37629"}, {"DoveID": "BATHAMPTON", "Place": "Bathampton", "Dedicn": "S Nicholas", "Bells": "6", "Practise": "Mon", "ExtraInfo": "", "lon": "-2.32183", "lat": "51.39737"}, {"DoveID": "BATHEALTON", "Place": "Bathealton", "Dedicn": "S Bartholomew", "Bells": "4", "Practise": "", "ExtraInfo": "", "lon": "-3.31370", "lat": "51.00857"}, {"DoveID": "BATHEASTO1", "Place": "Batheaston", "Dedicn": "S John Bapt", "Bells": "8", "Practise": "Thu", "ExtraInfo": "", "lon": "-2.32146", "lat": "51.40972"}, {"DoveID": "BATHFORD", "Place": "Bathford", "Dedicn": "S Swithun", "Bells": "6", "Practise": "Mon", "ExtraInfo": "", "lon": "-2.30627", "lat": "51.39818"}, {"DoveID": "BATHURST", "Place": "Bathurst", "Dedicn": "Cath Ch of All Saints", "Bells": "8", "Practise": "Wed", "ExtraInfo": "", "lon": "149.57965", "lat": "-33.41749"}, {"DoveID": "BATLEY", "Place": "Batley", "Dedicn": "All Saints", "Bells": "8", "Practise": "Fri", "ExtraInfo": "", "lon": "-1.63603", "lat": "53.71597"}, {"DoveID": "BATTERSEA", "Place": "Battersea", "Dedicn": "S Mary", "Bells": "8", "Practise": "Mon", "ExtraInfo": "", "lon": "-0.17558", "lat": "51.47651"}, {"DoveID": "BATTLE", "Place": "Battle", "Dedicn": "S Mary", "Bells": "8", "Practise": "Tue", "ExtraInfo": "", "lon": "0.48822", "lat": "50.91501"}, {"DoveID": "BATTLESDEN", "Place": "Battlesden", "Dedicn": "S Peter & All Saints", "Bells": "3", "Practise": "", "ExtraInfo": "Unringable; one bell (or more) cracked or broken", "lon": "-0.60603", "lat": "51.95205"}, {"DoveID": "BAUGHURST", "Place": "Baughurst", "Dedicn": "S Stephen", "Bells": "6", "Practise": "Wed", "ExtraInfo": "", "lon": "-1.16585", "lat": "51.33549"}, {"DoveID": "BAVERSTOCK", "Place": "Baverstock", "Dedicn": "S Editha", "Bells": "3", "Practise": "", "ExtraInfo": "Ropes fall in a straight line; no stays or sliders", "lon": "-1.96044", "lat": "51.08354"}, {"DoveID": "BAWDRIP", "Place": "Bawdrip", "Dedicn": "S Michael & All Angels", "Bells": "4", "Practise": "", "ExtraInfo": "One bell (or more) cracked or broken; tuning: 1-4 of 5", "lon": "-2.94286", "lat": "51.15173"}, {"DoveID": "BAWTRY", "Place": "Bawtry", "Dedicn": "S Nicholas", "Bells": "6", "Practise": "", "ExtraInfo": "Ringing currently not permitted", "lon": "-1.01840", "lat": "53.42975"}, {"DoveID": "BAYDON", "Place": "Baydon", "Dedicn": "S Nicholas", "Bells": "3", "Practise": "", "ExtraInfo": "Tuning: 1-3 of 4", "lon": "-1.59632", "lat": "51.50087"}, {"DoveID": "BAYLHAM", "Place": "Baylham", "Dedicn": "S Peter", "Bells": "6", "Practise": "", "ExtraInfo": "Unringable", "lon": "1.06929", "lat": "52.12220"}, {"DoveID": "BEACHAMPTO", "Place": "Beachampton", "Dedicn": "Assumption of BVM", "Bells": "5", "Practise": "Mon", "ExtraInfo": "", "lon": "-0.87848", "lat": "52.02664"}, {"DoveID": "BEACONSFIE", "Place": "Beaconsfield", "Dedicn": "S Mary & All Saints", "Bells": "8", "Practise": "Fri", "ExtraInfo": "Tuned to old concert pitch (A=454Hz)", "lon": "-0.63735", "lat": "51.60099"}, {"DoveID": "BEAFORD", "Place": "Beaford", "Dedicn": "All Saints", "Bells": "6", "Practise": "", "ExtraInfo": "", "lon": "-4.06115", "lat": "50.91637"}, {"DoveID": "BEAMINSTER", "Place": "Beaminster", "Dedicn": "S Mary of The Annunciation", "Bells": "10", "Practise": "Wed", "ExtraInfo": "", "lon": "-2.74113", "lat": "50.80839"}, {"DoveID": "BEARSTED", "Place": "Bearsted", "Dedicn": "Holy Cross", "Bells": "6", "Practise": "Tue", "ExtraInfo": "", "lon": "0.58035", "lat": "51.27029"}, {"DoveID": "BEAUCHAMP", "Place": "Beauchamp Roding", "Dedicn": "S Botolph", "Bells": "4", "Practise": "", "ExtraInfo": "Unringable", "lon": "0.28502", "lat": "51.76392"}, {"DoveID": "BEAUDESERT", "Place": "Beaudesert", "Dedicn": "S Nicholas", "Bells": "6", "Practise": "", "ExtraInfo": "", "lon": "-1.77730", "lat": "52.29227"}, {"DoveID": "BEAUMARIS", "Place": "Beaumaris", "Dedicn": "S Mary & S Nicholas", "Bells": "8", "Practise": "Mon", "ExtraInfo": "", "lon": "-4.09453", "lat": "53.26364"}, {"DoveID": "BEAWORTHY", "Place": "Beaworthy", "Dedicn": "S Alban", "Bells": "3", "Practise": "", "ExtraInfo": "Anti-clockwise", "lon": "-4.18407", "lat": "50.77410"}, {"DoveID": "BEBINGTON", "Place": "Bebington", "Dedicn": "S Andrew", "Bells": "8", "Practise": "Mon", "ExtraInfo": "", "lon": "-3.00352", "lat": "53.34782"}, {"DoveID": "BECCLES", "Place": "Beccles", "Dedicn": "The Bell Tower", "Bells": "10", "Practise": "Wed", "ExtraInfo": "Former detached tower of (extant) ch of S Michael Arch", "lon": "1.56258", "lat": "52.45829"}, {"DoveID": "BECKBURY", "Place": "Beckbury", "Dedicn": "S Milburga", "Bells": "6", "Practise": "", "ExtraInfo": "", "lon": "-2.34841", "lat": "52.61128"}, {"DoveID": "BECKENHAM", "Place": "Beckenham", "Dedicn": "S George", "Bells": "10", "Practise": "Thu", "ExtraInfo": "", "lon": "-0.02493", "lat": "51.40907"}, {"DoveID": "BECKFORD", "Place": "Beckford", "Dedicn": "S John Bapt", "Bells": "6", "Practise": "Tue", "ExtraInfo": "", "lon": "-2.03613", "lat": "52.02094"}, {"DoveID": "BECKINGHAL", "Place": "Beckingham", "Dedicn": "All Saints", "Bells": "6", "Practise": "", "ExtraInfo": "Unringable", "lon": "-0.69471", "lat": "53.07427"}, {"DoveID": "BECKINGHAN", "Place": "Beckingham", "Dedicn": "All Saints", "Bells": "3", "Practise": "Mon", "ExtraInfo": "Ropes fall in a straight line", "lon": "-0.82988", "lat": "53.40375"}, {"DoveID": "BECKINGTON", "Place": "Beckington", "Dedicn": "S George", "Bells": "8", "Practise": "Thu", "ExtraInfo": "", "lon": "-2.28574", "lat": "51.26351"}, {"DoveID": "BECKLEY OX", "Place": "Beckley", "Dedicn": "Assumption of BVM", "Bells": "5", "Practise": "", "ExtraInfo": "Unringable; ropes fall in sequence: 1,2,3,5,4", "lon": "-1.18608", "lat": "51.79728"}, {"DoveID": "BECKLEY SX", "Place": "Beckley", "Dedicn": "All Saints", "Bells": "6", "Practise": "Thu", "ExtraInfo": "PN alternates with Peasmarsh", "lon": "0.62377", "lat": "50.98342"}, {"DoveID": "BECKWITHSH", "Place": "Beckwithshaw", "Dedicn": "S Michael & All Angels", "Bells": "6", "Practise": "Mon", "ExtraInfo": "", "lon": "-1.59280", "lat": "53.97366"}, {"DoveID": "BEDALE", "Place": "Bedale", "Dedicn": "S Gregory", "Bells": "8", "Practise": "Wed", "ExtraInfo": "", "lon": "-1.59374", "lat": "54.29095"}, {"DoveID": "BEDDINGHAM", "Place": "Beddingham", "Dedicn": "S Andrew", "Bells": "4", "Practise": "", "ExtraInfo": "Anti-clockwise; no visiting bands at present; only limited ringing allowed; tuning: 2-5 of 8", "lon": "0.05132", "lat": "50.85256"}, {"DoveID": "BEDDINGTON", "Place": "Beddington", "Dedicn": "S Mary", "Bells": "10", "Practise": "Thu", "ExtraInfo": "", "lon": "-0.14015", "lat": "51.37149"}, {"DoveID": "BEDFIELD", "Place": "Bedfield", "Dedicn": "S Nicholas", "Bells": "6", "Practise": "", "ExtraInfo": "Unringable", "lon": "1.26113", "lat": "52.25015"}, {"DoveID": "BEDFORD AN", "Place": "Bedford", "Dedicn": "S Andrew", "Bells": "8", "Practise": "Thu", "ExtraInfo": "", "lon": "-0.45641", "lat": "52.14644"}, {"DoveID": "BEDFORD PA", "Place": "Bedford", "Dedicn": "S Paul", "Bells": "12", "Practise": "Mon", "ExtraInfo": "", "lon": "-0.46742", "lat": "52.13544"}, {"DoveID": "BEDFORD PE", "Place": "Bedford", "Dedicn": "S Peter de Merton", "Bells": "8", "Practise": "Thu", "ExtraInfo": "", "lon": "-0.46608", "lat": "52.13931"}, {"DoveID": "BEDFORDGOL", "Place": "Bedford", "Dedicn": "S Mary V", "Bells": "6", "Practise": "Wed", "ExtraInfo": "", "lon": "-0.42857", "lat": "52.14687"}, {"DoveID": "BEDINGHAM", "Place": "Bedingham", "Dedicn": "S Andrew", "Bells": "5", "Practise": "", "ExtraInfo": "Unringable; round tower", "lon": "1.36427", "lat": "52.49062"}, {"DoveID": "BEDWAS", "Place": "Bedwas", "Dedicn": "S Barrwg", "Bells": "6", "Practise": "", "ExtraInfo": "Unringable; tower unsafe", "lon": "-3.19826", "lat": "51.59538"}, {"DoveID": "BEDWELLTY", "Place": "Bedwellty", "Dedicn": "S Sannan", "Bells": "8", "Practise": "Wed", "ExtraInfo": "", "lon": "-3.20738", "lat": "51.69536"}, {"DoveID": "BEDWORTH", "Place": "Bedworth", "Dedicn": "All Saints", "Bells": "8", "Practise": "Wed", "ExtraInfo": "", "lon": "-1.47274", "lat": "52.47899"}, {"DoveID": "BEEBY", "Place": "Beeby", "Dedicn": "All Saints", "Bells": "3", "Practise": "", "ExtraInfo": "Unringable; truncated spire", "lon": "-1.01952", "lat": "52.66859"}, {"DoveID": "BEECH HILL", "Place": "Beech Hill", "Dedicn": "S Mary V", "Bells": "3", "Practise": "", "ExtraInfo": "Unringable", "lon": "-0.99880", "lat": "51.37426"}, {"DoveID": "BEECHWRTH", "Place": "Beechworth", "Dedicn": "Christ Church", "Bells": "6", "Practise": "Mon", "ExtraInfo": "", "lon": "146.68464", "lat": "-36.36050"}, {"DoveID": "BEEDON", "Place": "Beedon", "Dedicn": "S Nicholas", "Bells": "6", "Practise": "", "ExtraInfo": "", "lon": "-1.30666", "lat": "51.50003"}, {"DoveID": "BEEFORD", "Place": "Beeford", "Dedicn": "S Leonard", "Bells": "3", "Practise": "", "ExtraInfo": "Unringable", "lon": "-0.28036", "lat": "53.97313"}, {"DoveID": "BEELEY", "Place": "Beeley", "Dedicn": "S Anne", "Bells": "3", "Practise": "", "ExtraInfo": "Tuning: 1,3,4 of 4", "lon": "-1.60500", "lat": "53.20521"}, {"DoveID": "BEENHAM", "Place": "Beenham", "Dedicn": "S Mary", "Bells": "6", "Practise": "Tue", "ExtraInfo": "", "lon": "-1.15203", "lat": "51.41224"}, {"DoveID": "BEER", "Place": "Beer", "Dedicn": "S Michael", "Bells": "5", "Practise": "", "ExtraInfo": "", "lon": "-3.09264", "lat": "50.69879"}, {"DoveID": "BEER HACKE", "Place": "Beer Hackett", "Dedicn": "S Michael", "Bells": "3", "Practise": "", "ExtraInfo": "Unringable; one bell (or more) cracked or broken; tuning: 1,1,2 of 4", "lon": "-2.57043", "lat": "50.90402"}, {"DoveID": "BEERCROCOM", "Place": "Beercrocombe", "Dedicn": "S James", "Bells": "5", "Practise": "Fri", "ExtraInfo": "", "lon": "-2.96210", "lat": "50.97916"}, {"DoveID": "BEESTON", "Place": "Beeston", "Dedicn": "S John Bapt", "Bells": "10", "Practise": "Wed", "ExtraInfo": "", "lon": "-1.21675", "lat": "52.92542"}, {"DoveID": "BEETHAM", "Place": "Beetham", "Dedicn": "S Michael & All Angels", "Bells": "6", "Practise": "Mon", "ExtraInfo": "", "lon": "-2.77427", "lat": "54.20935"}, {"DoveID": "BEETLEY", "Place": "Beetley", "Dedicn": "S Mary", "Bells": "8", "Practise": "Wed", "ExtraInfo": "", "lon": "0.92164", "lat": "52.72845"}, {"DoveID": "BEKESBOURN", "Place": "Bekesbourne", "Dedicn": "S Peter", "Bells": "6", "Practise": "Mon", "ExtraInfo": "Tuned to old concert pitch (A=454Hz)", "lon": "1.14432", "lat": "51.25620"}, {"DoveID": "BELAUGH", "Place": "Belaugh", "Dedicn": "S Peter", "Bells": "3", "Practise": "", "ExtraInfo": "Unringable", "lon": "1.38740", "lat": "52.71499"}, {"DoveID": "BELBROUGHT", "Place": "Belbroughton", "Dedicn": "Holy Trinity", "Bells": "6", "Practise": "Tue", "ExtraInfo": "", "lon": "-2.12039", "lat": "52.38970"}, {"DoveID": "BELCHAMP O", "Place": "Belchamp Otten", "Dedicn": "S Ethelbert & All Saints", "Bells": "3", "Practise": "", "ExtraInfo": "Unringable", "lon": "0.62804", "lat": "52.04488"}, {"DoveID": "BELCHAMP S", "Place": "Belchamp St Paul", "Dedicn": "S Andrew", "Bells": "6", "Practise": "Fri", "ExtraInfo": "", "lon": "0.62158", "lat": "52.06029"}, {"DoveID": "BELCHAMP W", "Place": "Belchamp Walter", "Dedicn": "S Mary V", "Bells": "8", "Practise": "", "ExtraInfo": "Unringable; tuning: (approx) 1#,2-8 of 8", "lon": "0.66250", "lat": "52.03453"}, {"DoveID": "BELFASTNI1", "Place": "Belfast", "Dedicn": "S Thomas", "Bells": "8", "Practise": "Thu", "ExtraInfo": "", "lon": "-5.94586", "lat": "54.58208"}, {"DoveID": "BELFASTNI2", "Place": "Belfast", "Dedicn": "S Donard", "Bells": "6", "Practise": "Tue", "ExtraInfo": "", "lon": "-5.88638", "lat": "54.59370"}, {"DoveID": "BELFASTNI4", "Place": "Belfast", "Dedicn": "S Mark", "Bells": "10", "Practise": "", "ExtraInfo": "County books / pNBR info discrepant; no regular ringing", "lon": "-5.87496", "lat": "54.60309"}, {"DoveID": "BELGRAVE", "Place": "Belgrave", "Dedicn": "S Peter", "Bells": "8", "Practise": "", "ExtraInfo": "Church closed", "lon": "-1.12512", "lat": "52.65889"}, {"DoveID": "BELPER", "Place": "Belper", "Dedicn": "S Peter", "Bells": "8", "Practise": "Wed", "ExtraInfo": "", "lon": "-1.47874", "lat": "53.02510"}, {"DoveID": "BELSTONE", "Place": "Belstone", "Dedicn": "S Mary", "Bells": "6", "Practise": "Tue", "ExtraInfo": "", "lon": "-3.95759", "lat": "50.72465"}, {"DoveID": "BELTON LEI", "Place": "Belton", "Dedicn": "S John Bapt", "Bells": "6", "Practise": "Thu", "ExtraInfo": "Thu PN shared: exc 4: Hathern; 4: Belton", "lon": "-1.33780", "lat": "52.78307"}, {"DoveID": "BELTON LIN", "Place": "Belton", "Dedicn": "S Peter & S Paul", "Bells": "5", "Practise": "", "ExtraInfo": "", "lon": "-0.61788", "lat": "52.94517"}, {"DoveID": "BELTONINIA", "Place": "Belton in Isle of Axholme", "Dedicn": "All Saints", "Bells": "6", "Practise": "Mon", "ExtraInfo": "", "lon": "-0.82010", "lat": "53.54772"}, {"DoveID": "BELTONINRU", "Place": "Belton in Rutland", "Dedicn": "S Peter", "Bells": "6", "Practise": "", "ExtraInfo": "Tower notice(s) / pNBR info discrepant", "lon": "-0.79621", "lat": "52.60382"}, {"DoveID": "BENDIGO", "Place": "Bendigo", "Dedicn": "Cath Ch of S Paul", "Bells": "8", "Practise": "", "ExtraInfo": "Ringing prohibited", "lon": "144.28279", "lat": "-36.76215"}, {"DoveID": "BENEFIELD", "Place": "Benefield", "Dedicn": "S Mary V", "Bells": "6", "Practise": "", "ExtraInfo": "", "lon": "-0.54652", "lat": "52.48522"}, {"DoveID": "BENENDEN", "Place": "Benenden", "Dedicn": "S George", "Bells": "12", "Practise": "Fri", "ExtraInfo": "Also 6b", "lon": "0.57926", "lat": "51.06488"}, {"DoveID": "BENFIELDSI", "Place": "Benfieldside", "Dedicn": "S Cuthbert", "Bells": "6", "Practise": "Thu", "ExtraInfo": "", "lon": "-1.85696", "lat": "54.86805"}, {"DoveID": "BENGEO", "Place": "Bengeo", "Dedicn": "Holy Trinity", "Bells": "8", "Practise": "", "ExtraInfo": "", "lon": "-0.08006", "lat": "51.80533"}, {"DoveID": "BENGEWORTH", "Place": "Bengeworth", "Dedicn": "S Peter", "Bells": "6", "Practise": "", "ExtraInfo": "Ringing temporarily suspended", "lon": "-1.93608", "lat": "52.09025"}, {"DoveID": "BENHALL", "Place": "Benhall", "Dedicn": "S Mary", "Bells": "6", "Practise": "Fri", "ExtraInfo": "", "lon": "1.46989", "lat": "52.20392"}, {"DoveID": "BENINGTO H", "Place": "Benington", "Dedicn": "S Peter", "Bells": "8", "Practise": "Mon", "ExtraInfo": "", "lon": "-0.11691", "lat": "51.89551"}, {"DoveID": "BENINGTO L", "Place": "Benington", "Dedicn": "All Saints", "Bells": "6", "Practise": "", "ExtraInfo": "Church closed; ringing currently not permitted", "lon": "0.08009", "lat": "52.99766"}, {"DoveID": "BENNIWORTH", "Place": "Benniworth", "Dedicn": "S Julian", "Bells": "3", "Practise": "", "ExtraInfo": "Unringable; one bell (or more) cracked or broken; ropes fall in a straight line; ropes fall in sequence: 1,3,2", "lon": "-0.18605", "lat": "53.31917"}, {"DoveID": "BENSON", "Place": "Benson", "Dedicn": "S Helen", "Bells": "8", "Practise": "Wed", "ExtraInfo": "", "lon": "-1.11313", "lat": "51.62010"}, {"DoveID": "BENTLEY  H", "Place": "Bentley", "Dedicn": "S Mary", "Bells": "6", "Practise": "Mon", "ExtraInfo": "", "lon": "-0.87942", "lat": "51.19607"}, {"DoveID": "BENTLEY  S", "Place": "Bentley", "Dedicn": "S Peter", "Bells": "5", "Practise": "Tue", "ExtraInfo": "", "lon": "-1.14734", "lat": "53.54395"}, {"DoveID": "BENTLEY CO", "Place": "Bentley Common", "Dedicn": "S Paul", "Bells": "6", "Practise": "Tue", "ExtraInfo": "", "lon": "0.26305", "lat": "51.64698"}, {"DoveID": "BENTWORTH", "Place": "Bentworth", "Dedicn": "S Mary", "Bells": "6", "Practise": "Mon", "ExtraInfo": "PN alternates: Bentworth, Chawton", "lon": "-1.05004", "lat": "51.15797"}, {"DoveID": "BEOLEY", "Place": "Beoley", "Dedicn": "S Leonard", "Bells": "8", "Practise": "Thu", "ExtraInfo": "", "lon": "-1.90594", "lat": "52.32487"}, {"DoveID": "BERE FERRE", "Place": "Bere Ferrers", "Dedicn": "S Andrew", "Bells": "6", "Practise": "", "ExtraInfo": "", "lon": "-4.17164", "lat": "50.45021"}, {"DoveID": "BERE REGIS", "Place": "Bere Regis", "Dedicn": "S John Bapt", "Bells": "6", "Practise": "Wed", "ExtraInfo": "", "lon": "-2.21786", "lat": "50.75219"}, {"DoveID": "BERGH APTO", "Place": "Bergh Apton", "Dedicn": "S Peter & S Paul", "Bells": "6", "Practise": "", "ExtraInfo": "", "lon": "1.40619", "lat": "52.54787"}, {"DoveID": "BERKELEY", "Place": "Berkeley", "Dedicn": "S Mary V", "Bells": "10", "Practise": "Wed", "ExtraInfo": "Detached tower", "lon": "-2.45771", "lat": "51.68965"}, {"DoveID": "BERKHAMSTE", "Place": "Berkhamsted, Great", "Dedicn": "S Peter", "Bells": "8", "Practise": "Thu", "ExtraInfo": "", "lon": "-0.56167", "lat": "51.75957"}, {"DoveID": "BERKLEY", "Place": "Berkley", "Dedicn": "Blessed Virgin Mary", "Bells": "4", "Practise": "", "ExtraInfo": "Unringable", "lon": "-2.27210", "lat": "51.24351"}, {"DoveID": "BERKSWELL", "Place": "Berkswell", "Dedicn": "S John Bapt", "Bells": "6", "Practise": "Fri", "ExtraInfo": "", "lon": "-1.64317", "lat": "52.40998"}, {"DoveID": "BERMONDSEY", "Place": "Bermondsey", "Dedicn": "S James", "Bells": "8", "Practise": "Tue", "ExtraInfo": "CC recognised Ringing Centre; Tue (1,3,5) PN shared with Rotherhithe (2,4) - but check", "lon": "-0.06699", "lat": "51.49703"}, {"DoveID": "BERRICK SA", "Place": "Berrick Salome", "Dedicn": "S Helen", "Bells": "6", "Practise": "", "ExtraInfo": "", "lon": "-1.09998", "lat": "51.64385"}, {"DoveID": "BERRIEW", "Place": "Berriew", "Dedicn": "S Beuno", "Bells": "8", "Practise": "Wed", "ExtraInfo": "", "lon": "-3.20078", "lat": "52.59905"}, {"DoveID": "BERRINGTON", "Place": "Berrington", "Dedicn": "All Saints", "Bells": "8", "Practise": "", "ExtraInfo": "", "lon": "-2.69577", "lat": "52.65740"}, {"DoveID": "BERROW SOM", "Place": "Berrow", "Dedicn": "Blessed Virgin Mary", "Bells": "6", "Practise": "", "ExtraInfo": "", "lon": "-3.01374", "lat": "51.26693"}, {"DoveID": "BERROW WOR", "Place": "Berrow", "Dedicn": "S Faith", "Bells": "5", "Practise": "", "ExtraInfo": "Tower notice(s) / pNBR info discrepant; county books / pNBR info discrepant", "lon": "-2.30190", "lat": "52.00657"}, {"DoveID": "BERRY POME", "Place": "Berry Pomeroy", "Dedicn": "S Mary", "Bells": "8", "Practise": "", "ExtraInfo": "", "lon": "-3.65065", "lat": "50.43720"}, {"DoveID": "BERRYNARBO", "Place": "Berrynarbor", "Dedicn": "S Peter", "Bells": "6", "Practise": "", "ExtraInfo": "", "lon": "-4.06211", "lat": "51.20148"}, {"DoveID": "BERWICKBAS", "Place": "Berwick Bassett", "Dedicn": "S Nicholas", "Bells": "3", "Practise": "", "ExtraInfo": "Unringable; rung from porch; anti-clockwise; no stays or sliders; no electricity; tuning: 1-3 of 4", "lon": "-1.85954", "lat": "51.46074"}, {"DoveID": "BERWICKSJA", "Place": "Berwick St James", "Dedicn": "S James", "Bells": "4", "Practise": "", "ExtraInfo": "Unringable; anti-clockwise; tuning: (approx) 1-3,6 of 12; former 4/5 sold 1835", "lon": "-1.89887", "lat": "51.15161"}, {"DoveID": "BERWICKSJO", "Place": "Berwick St John", "Dedicn": "S John", "Bells": "6", "Practise": "", "ExtraInfo": "", "lon": "-2.07837", "lat": "51.00054"}, {"DoveID": "BERWICKUTW", "Place": "Berwick upon Tweed", "Dedicn": "Town Hall", "Bells": "8", "Practise": "Thu", "ExtraInfo": "", "lon": "-2.00315", "lat": "55.76953"}, {"DoveID": "BESTHORPE", "Place": "Besthorpe", "Dedicn": "All Saints", "Bells": "5", "Practise": "", "ExtraInfo": "", "lon": "1.04315", "lat": "52.51928"}, {"DoveID": "BETCHWORTH", "Place": "Betchworth", "Dedicn": "S Michael & All Angels", "Bells": "8", "Practise": "Tue", "ExtraInfo": "", "lon": "-0.26734", "lat": "51.23364"}, {"DoveID": "BETHERSDEN", "Place": "Bethersden", "Dedicn": "S Margaret", "Bells": "6", "Practise": "Fri", "ExtraInfo": "", "lon": "0.75375", "lat": "51.12914"}, {"DoveID": "BETHNAL G3", "Place": "Bethnal Green", "Dedicn": "S John", "Bells": "3", "Practise": "", "ExtraInfo": "", "lon": "-0.05518", "lat": "51.52756"}, {"DoveID": "BETHNAL GR", "Place": "Bethnal Green", "Dedicn": "S Matthew", "Bells": "8", "Practise": "", "ExtraInfo": "", "lon": "-0.06741", "lat": "51.52512"}, {"DoveID": "BETLEY", "Place": "Betley", "Dedicn": "S Margaret", "Bells": "6", "Practise": "Wed", "ExtraInfo": "", "lon": "-2.36606", "lat": "53.03280"}, {"DoveID": "BETTESHANG", "Place": "Betteshanger", "Dedicn": "S Mary V", "Bells": "3", "Practise": "", "ExtraInfo": "Unringable; no stays or sliders", "lon": "1.31061", "lat": "51.22492"}, {"DoveID": "BETTISFIEL", "Place": "Bettisfield", "Dedicn": "S John Bapt", "Bells": "3", "Practise": "Thu", "ExtraInfo": "", "lon": "-2.80255", "lat": "52.91886"}, {"DoveID": "BETTWS CED", "Place": "Bettws Cedewain", "Dedicn": "S Beuno", "Bells": "3", "Practise": "", "ExtraInfo": "Unringable", "lon": "-3.29570", "lat": "52.56219"}, {"DoveID": "BEVERLEY", "Place": "Beverley", "Dedicn": "Minster Ch of S John & S Martin", "Bells": "10", "Practise": "Tue", "ExtraInfo": "", "lon": "-0.42539", "lat": "53.83930"}, {"DoveID": "BEVERLEY M", "Place": "Beverley", "Dedicn": "S Mary", "Bells": "12", "Practise": "Wed", "ExtraInfo": "Also 2#", "lon": "-0.43367", "lat": "53.84414"}, {"DoveID": "BEWDLEY", "Place": "Bewdley", "Dedicn": "S Anne", "Bells": "8", "Practise": "Wed", "ExtraInfo": "", "lon": "-2.31625", "lat": "52.37530"}, {"DoveID": "BEXHILL ON", "Place": "Bexhill on Sea", "Dedicn": "S Peter", "Bells": "10", "Practise": "Tue", "ExtraInfo": "Also 7#", "lon": "0.47863", "lat": "50.84611"}, {"DoveID": "BEXLEY", "Place": "Bexley", "Dedicn": "S Mary", "Bells": "8", "Practise": "Thu", "ExtraInfo": "", "lon": "0.15354", "lat": "51.44009"}, {"DoveID": "BIBURY", "Place": "Bibury", "Dedicn": "S Mary", "Bells": "6", "Practise": "Fri", "ExtraInfo": "", "lon": "-1.83032", "lat": "51.75717"}, {"DoveID": "BICESTER", "Place": "Bicester", "Dedicn": "S Edburg", "Bells": "10", "Practise": "Mon", "ExtraInfo": "", "lon": "-1.15444", "lat": "51.89607"}, {"DoveID": "BICKENHILL", "Place": "Bickenhill", "Dedicn": "S Peter", "Bells": "6", "Practise": "Tue", "ExtraInfo": "", "lon": "-1.72464", "lat": "52.43934"}, {"DoveID": "BICKER", "Place": "Bicker", "Dedicn": "S Swithin", "Bells": "8", "Practise": "", "ExtraInfo": "", "lon": "-0.17996", "lat": "52.92425"}, {"DoveID": "BICKINGTON", "Place": "Bickington", "Dedicn": "S Mary V", "Bells": "6", "Practise": "", "ExtraInfo": "", "lon": "-3.69540", "lat": "50.54148"}, {"DoveID": "BICKLEIG H", "Place": "Bickleigh", "Dedicn": "S Mary", "Bells": "6", "Practise": "Tue", "ExtraInfo": "", "lon": "-3.50419", "lat": "50.85448"}, {"DoveID": "BICKLEIG P", "Place": "Bickleigh", "Dedicn": "S Mary V", "Bells": "6", "Practise": "Mon", "ExtraInfo": "", "lon": "-4.08460", "lat": "50.44194"}, {"DoveID": "BICKLEY", "Place": "Bickley", "Dedicn": "S George", "Bells": "8", "Practise": "Wed", "ExtraInfo": "", "lon": "0.04936", "lat": "51.40210"}, {"DoveID": "BICKNOLLER", "Place": "Bicknoller", "Dedicn": "S George", "Bells": "6", "Practise": "Mon", "ExtraInfo": "PN shared: Bicknoller, West Quantoxhead", "lon": "-3.27279", "lat": "51.14717"}, {"DoveID": "BICKNOR", "Place": "Bicknor", "Dedicn": "S James", "Bells": "4", "Practise": "", "ExtraInfo": "Unringable; steel bells; no stays or sliders; no electricity; tuning: 1,3-5 of 5; have very small wheels more appropriate to swing chiming", "lon": "0.66725", "lat": "51.29808"}, {"DoveID": "BICTON", "Place": "Bicton", "Dedicn": "Holy Trinity", "Bells": "6", "Practise": "", "ExtraInfo": "", "lon": "-2.81872", "lat": "52.72860"}, {"DoveID": "BIDDENDEN", "Place": "Biddenden", "Dedicn": "All Saints", "Bells": "8", "Practise": "Thu", "ExtraInfo": "", "lon": "0.64023", "lat": "51.11510"}, {"DoveID": "BIDDENHAM", "Place": "Biddenham", "Dedicn": "S James", "Bells": "8", "Practise": "Thu", "ExtraInfo": "", "lon": "-0.51987", "lat": "52.13843"}, {"DoveID": "BIDDISHAM", "Place": "Biddisham", "Dedicn": "S John Bapt", "Bells": "4", "Practise": "", "ExtraInfo": "", "lon": "-2.88766", "lat": "51.27668"}, {"DoveID": "BIDDULPH", "Place": "Biddulph", "Dedicn": "S Lawrence", "Bells": "6", "Practise": "Fri", "ExtraInfo": "", "lon": "-2.16607", "lat": "53.12818"}, {"DoveID": "BIDEFORD", "Place": "Bideford", "Dedicn": "S Mary", "Bells": "8", "Practise": "Wed", "ExtraInfo": "", "lon": "-4.20589", "lat": "51.01630"}, {"DoveID": "BIDFORD ON", "Place": "Bidford on Avon", "Dedicn": "S Laurence", "Bells": "8", "Practise": "Tue", "ExtraInfo": "", "lon": "-1.85420", "lat": "52.16466"}, {"DoveID": "BIDSTON", "Place": "Bidston", "Dedicn": "S Oswald", "Bells": "6", "Practise": "", "ExtraInfo": "", "lon": "-3.07943", "lat": "53.40419"}, {"DoveID": "BIERTON", "Place": "Bierton", "Dedicn": "S James Gt", "Bells": "6", "Practise": "Fri", "ExtraInfo": "Rung from chancel crossing; county books / pNBR info discrepant", "lon": "-0.78799", "lat": "51.82973"}, {"DoveID": "BIGBURY", "Place": "Bigbury", "Dedicn": "S Lawrence", "Bells": "6", "Practise": "", "ExtraInfo": "Unringable", "lon": "-3.87221", "lat": "50.30457"}, {"DoveID": "BIGBY", "Place": "Bigby", "Dedicn": "All Saints", "Bells": "6", "Practise": "", "ExtraInfo": "", "lon": "-0.40195", "lat": "53.55318"}, {"DoveID": "BIGGIN HIL", "Place": "Biggin Hill", "Dedicn": "S Mark", "Bells": "6", "Practise": "Tue", "ExtraInfo": "Detached tower", "lon": "0.03495", "lat": "51.31183"}, {"DoveID": "BIGGLESWAD", "Place": "Biggleswade", "Dedicn": "S Andrew", "Bells": "10", "Practise": "Wed", "ExtraInfo": "", "lon": "-0.26762", "lat": "52.08702"}, {"DoveID": "BILBROUGH", "Place": "Bilbrough", "Dedicn": "S James", "Bells": "5", "Practise": "", "ExtraInfo": "", "lon": "-1.19465", "lat": "53.91194"}, {"DoveID": "BILDESTON", "Place": "Bildeston", "Dedicn": "S Mary Magd", "Bells": "6", "Practise": "Tue", "ExtraInfo": "", "lon": "0.89779", "lat": "52.10543"}, {"DoveID": "BILLESDON", "Place": "Billesdon", "Dedicn": "S John Bapt", "Bells": "8", "Practise": "Fri", "ExtraInfo": "", "lon": "-0.93822", "lat": "52.61579"}, {"DoveID": "BILLINGBOR", "Place": "Billingborough", "Dedicn": "S Andrew", "Bells": "8", "Practise": "", "ExtraInfo": "", "lon": "-0.33994", "lat": "52.89404"}, {"DoveID": "BILLINGHAY", "Place": "Billinghay", "Dedicn": "S Michael", "Bells": "3", "Practise": "", "ExtraInfo": "Unringable; tuning: 1,2,4 of 5", "lon": "-0.27472", "lat": "53.07914"},